ID;Name;Latitude;Longitude;Country_ISO;Population
AD-les_Escaldes;les Escaldes;42.50729;1.53414;AD;15853
AD-Andorra_la_Vella;Andorra la Vella;42.50779;1.52109;AD;20430
AE-Umm_Al_Quwain_City;Umm Al Quwain City;25.56473;55.55517;AE;62747
AE-Ras_Al_Khaimah_City;Ras Al Khaimah City;25.78953;55.9432;AE;351943
AE-Zayed_City;Zayed City;23.65416;53.70522;AE;63482
AE-Khawr_Fakkān;Khawr Fakkān;25.33132;56.34199;AE;40677
AE-Dubai;Dubai;25.07725;55.30927;AE;2956587
AE-Dibba_Al-Fujairah;Dibba Al-Fujairah;25.59246;56.26176;AE;30000
AE-Dibba_Al-Hisn;Dibba Al-Hisn;25.61955;56.27291;AE;26395
AE-Sharjah;Sharjah;25.33737;55.41206;AE;1324473
AE-Ar_Ruways;Ar Ruways;24.11028;52.73056;AE;16000
AE-Al_Fujairah_City;Al Fujairah City;25.11641;56.34141;AE;86512
AE-Al_Ain_City;Al Ain City;24.19167;55.76056;AE;55091
AE-Ajman_City;Ajman City;25.40177;55.47878;AE;490035
AE-Adh_Dhayd;Adh Dhayd;25.28812;55.88157;AE;24716
AE-Abu_Dhabi;Abu Dhabi;24.45118;54.39696;AE;603492
AE-Khalifah_A_City;Khalifah A City;24.42588;54.605;AE;85374
AE-Bani_Yas_City;Bani Yas City;24.30978;54.62944;AE;80498
AE-Musaffah;Musaffah;24.35893;54.48267;AE;243341
AE-Al_Shamkhah_City;Al Shamkhah City;24.39268;54.70779;AE;61710
AE-Reef_Al_Fujairah_City;Reef Al Fujairah City;25.14479;56.24764;AE;82310
AF-Zaranj;Zaranj;30.95962;61.86037;AF;49851
AF-Taloqan;Taloqan;36.73605;69.53451;AF;64256
AF-Shīnḏanḏ;Shīnḏanḏ;33.30294;62.1474;AF;29264
AF-Shibirghān;Shibirghān;36.66757;65.7529;AF;55641
AF-Shahrak;Shahrak;34.10737;64.3052;AF;15967
AF-Sar-e_Pul;Sar-e Pul;36.21544;65.93249;AF;52121
AF-Sang-e_Chārak;Sang-e Chārak;35.84972;66.43694;AF;15377
AF-Aībak;Aībak;36.26468;68.01551;AF;47823
AF-Rustāq;Rustāq;37.12604;69.83045;AF;25636
AF-Qarqīn;Qarqīn;37.41853;66.04358;AF;15018
AF-Qarāwul;Qarāwul;37.21959;68.7802;AF;24544
AF-Pul-e_Khumrī;Pul-e Khumrī;35.94458;68.71512;AF;56369
AF-Paghmān;Paghmān;34.58787;68.95091;AF;49157
AF-Nahrīn;Nahrīn;36.0649;69.13343;AF;22363
AF-Maymana;Maymana;35.92139;64.78361;AF;75900
AF-Mehtar_Lām;Mehtar Lām;34.67139;70.20944;AF;17345
AF-Mazār-e_Sharīf;Mazār-e Sharīf;36.70904;67.11087;AF;303282
AF-Lashkar_Gāh;Lashkar Gāh;31.59382;64.37161;AF;43934
AF-Kushk;Kushk;33.29565;61.95221;AF;16952
AF-Kunduz;Kunduz;36.72895;68.857;AF;161902
AF-Khōst;Khōst;33.33951;69.92041;AF;96123
AF-Khulm;Khulm;36.69736;67.69826;AF;64933
AF-Khāsh;Khāsh;31.52919;62.79055;AF;15133
AF-Khanabad;Khanabad;36.6825;69.11556;AF;71531
AF-Karukh;Karukh;34.48108;62.5863;AF;17484
AF-Kandahār;Kandahār;31.61332;65.71013;AF;391190
AF-Kabul;Kabul;34.52813;69.17233;AF;3043532
AF-Jalālābād;Jalālābād;34.42647;70.45153;AF;200331
AF-Jabal_os_Saraj;Jabal os Saraj;35.11833;69.23778;AF;15032
AF-Herāt;Herāt;34.34817;62.19967;AF;272806
AF-Ghormach;Ghormach;35.73062;63.78264;AF;30000
AF-Ghazni;Ghazni;33.55391;68.42096;AF;141000
AF-Gereshk;Gereshk;31.82089;64.57005;AF;43588
AF-Gardez;Gardez;33.59744;69.22592;AF;103601
AF-Fayzabad;Fayzabad;37.11664;70.58002;AF;44421
AF-Farah;Farah;32.37451;62.11638;AF;43561
AF-Kafir_Qala;Kafir Qala;34.66667;61.06667;AF;18086
AF-Charikar;Charikar;35.01361;69.17139;AF;53676
AF-Baraki_Barak;Baraki Barak;33.96744;68.9492;AF;22305
AF-Bāmyān;Bāmyān;34.82156;67.82734;AF;61863
AF-Balkh;Balkh;36.75635;66.8972;AF;114883
AF-Baghlān;Baghlān;36.13068;68.70829;AF;108449
AF-Ārt_Khwājah;Ārt Khwājah;37.08571;69.47958;AF;18623
AF-Āsmār;Āsmār;35.03333;71.35809;AF;15708
AF-Asadābād;Asadābād;34.87311;71.14697;AF;48400
AF-Andkhōy;Andkhōy;36.95293;65.12376;AF;29208
AF-Bāzārak;Bāzārak;35.31292;69.51519;AF;65000
AF-Markaz-e_Woluswalī-ye_Āchīn;Markaz-e Woluswalī-ye Āchīn;34.12583;70.70778;AF;15098
AG-Saint_John’s;Saint John’s;17.12096;-61.84329;AG;24226
AI-The_Valley;The Valley;18.21704;-63.05783;AI;2035
AL-Sarandë;Sarandë;39.87534;20.00477;AL;15147
AL-Pogradec;Pogradec;40.9025;20.6525;AL;61530
AL-Kukës;Kukës;42.07694;20.42194;AL;17832
AL-Korçë;Korçë;40.61861;20.78083;AL;58259
AL-Gjirokastër;Gjirokastër;40.07583;20.13889;AL;23437
AL-Elbasan;Elbasan;41.1125;20.08222;AL;100903
AL-Burrel;Burrel;41.61028;20.00889;AL;15405
AL-Vlorë;Vlorë;40.4686;19.48318;AL;89546
AL-Tirana;Tirana;41.3275;19.81889;AL;374801
AL-Shkodër;Shkodër;42.06828;19.51258;AL;88245
AL-Patos_Fshat;Patos Fshat;40.64278;19.65083;AL;22679
AL-Patos;Patos;40.68333;19.61944;AL;60000
AL-Lushnjë;Lushnjë;40.94194;19.705;AL;41469
AL-Lezhë;Lezhë;41.78361;19.64361;AL;18695
AL-Laç;Laç;41.63556;19.71306;AL;24825
AL-Kuçovë;Kuçovë;40.80028;19.91667;AL;18166
AL-Krujë;Krujë;41.50917;19.79278;AL;21286
AL-Kavajë;Kavajë;41.18556;19.55694;AL;29354
AL-Fier-Çifçi;Fier-Çifçi;40.71667;19.56667;AL;60995
AL-Fier;Fier;40.72389;19.55611;AL;56297
AL-Durrës;Durrës;41.32355;19.45469;AL;122034
AL-Berat;Berat;40.70583;19.95222;AL;46866
AM-Kapan;Kapan;39.20755;46.40576;AM;33160
AM-Goris;Goris;39.51111;46.34168;AM;20379
AM-Hats’avan;Hats’avan;39.46405;45.97047;AM;15208
AM-Artashat;Artashat;39.96144;44.54447;AM;20562
AM-Ararat;Ararat;39.83069;44.70569;AM;28832
AM-Yerevan;Yerevan;40.18111;44.51361;AM;1093485
AM-Vagharshapat;Vagharshapat;40.16557;44.29462;AM;46540
AM-Step’anavan;Step’anavan;41.00995;44.38531;AM;23782
AM-Spitak;Spitak;40.83221;44.26731;AM;15059
AM-Sevan;Sevan;40.5473;44.94171;AM;17083
AM-Masis;Masis;40.06542;44.41618;AM;18911
AM-Vanadzor;Vanadzor;40.80456;44.4939;AM;101098
AM-Gavarr;Gavarr;40.35398;45.12386;AM;21680
AM-Hrazdan;Hrazdan;40.49748;44.7662;AM;40795
AM-Armavir;Armavir;40.15446;44.03815;AM;25963
AM-Gyumri;Gyumri;40.7942;43.84528;AM;148381
AM-Ashtarak;Ashtarak;40.2991;44.36204;AM;18779
AM-Abovyan;Abovyan;40.27368;44.63348;AM;35673
AO-Saurimo;Saurimo;-9.66078;20.39155;AO;40498
AO-Lucapa;Lucapa;-8.41915;20.74466;AO;20115
AO-Luau;Luau;-10.70727;22.22466;AO;18465
AO-Uíge;Uíge;-7.60874;15.06131;AO;60008
AO-Soio;Soio;-6.1349;12.36894;AO;67491
AO-N'zeto;N'zeto;-7.23116;12.8666;AO;18352
AO-N’dalatando;N’dalatando;-9.29782;14.91162;AO;383100
AO-Mbanza_Congo;Mbanza Congo;-6.26703;14.2401;AO;24220
AO-Malanje;Malanje;-9.54015;16.34096;AO;87046
AO-Luanda;Luanda;-8.83682;13.23432;AO;2776168
AO-Caxito;Caxito;-8.57848;13.66425;AO;28224
AO-Cabinda;Cabinda;-5.55;12.2;AO;66020
AO-Sumbe;Sumbe;-11.20605;13.84371;AO;33277
AO-Namibe;Namibe;-15.19611;12.15222;AO;80149
AO-Menongue;Menongue;-14.6585;17.69099;AO;32203
AO-Luena;Luena;-11.78333;19.91667;AO;21115
AO-Lubango;Lubango;-14.91717;13.4925;AO;102541
AO-Longonjo;Longonjo;-12.90667;15.25333;AO;24346
AO-Lobito;Lobito;-12.3644;13.53601;AO;207932
AO-Cuito;Cuito;-12.38333;16.93333;AO;113624
AO-Huambo;Huambo;-12.77611;15.73917;AO;226145
AO-Catumbela;Catumbela;-12.43002;13.54677;AO;16977
AO-Catabola;Catabola;-12.15;17.28333;AO;18855
AO-Camacupa;Camacupa;-12.01667;17.48333;AO;19150
AO-Caála;Caála;-12.8525;15.56056;AO;21205
AO-Benguela;Benguela;-12.57626;13.40547;AO;151226
AR-Zárate;Zárate;-34.09814;-59.02858;AR;88781
AR-Wanda;Wanda;-25.96879;-54.56285;AR;15529
AR-Villa_Ortúzar;Villa Ortúzar;-34.57973;-58.46829;AR;22500
AR-Villa_Ocampo;Villa Ocampo;-28.48752;-59.35515;AR;19101
AR-Villa_Lugano;Villa Lugano;-34.67907;-58.47263;AR;114000
AR-Villaguay;Villaguay;-31.8653;-59.02689;AR;32027
AR-Villa_Gesell;Villa Gesell;-37.26394;-56.97304;AR;23257
AR-Villa_de_Mayo;Villa de Mayo;-34.5108;-58.68059;AR;43405
AR-Tortuguitas;Tortuguitas;-34.47513;-58.75367;AR;41390
AR-Tigre;Tigre;-34.42603;-58.57962;AR;31106
AR-Tandil;Tandil;-37.32167;-59.13316;AR;104325
AR-San_Vicente;San Vicente;-26.61667;-54.13333;AR;38247
AR-Santo_Tomé;Santo Tomé;-28.54939;-56.04077;AR;22634
AR-Santa_Elena;Santa Elena;-30.94432;-59.78832;AR;18410
AR-San_Pedro;San Pedro;-33.67918;-59.66633;AR;47452
AR-San_Pedro;San Pedro;-26.62207;-54.10842;AR;23736
AR-San_Luis_del_Palmar;San Luis del Palmar;-27.5079;-58.55454;AR;15347
AR-San_Lorenzo;San Lorenzo;-28.13306;-58.76733;AR;47626
AR-San_Javier;San Javier;-30.57781;-59.9317;AR;15606
AR-San_Isidro;San Isidro;-34.4721;-58.52708;AR;45190
AR-Saladas;Saladas;-28.25384;-58.62591;AR;18349
AR-Retiro;Retiro;-34.58333;-58.38333;AR;38635
AR-Resistencia;Resistencia;-27.46056;-58.98389;AR;387158
AR-Reconquista;Reconquista;-29.15;-59.65;AR;90184
AR-Quilmes;Quilmes;-34.72904;-58.26374;AR;230000
AR-Puerto_Rico;Puerto Rico;-26.79598;-55.02402;AR;17491
AR-Puerto_Iguazú;Puerto Iguazú;-25.59912;-54.57355;AR;32038
AR-Puerto_Esperanza;Puerto Esperanza;-26.02267;-54.61356;AR;15579
AR-Puerto_Eldorado;Puerto Eldorado;-26.40843;-54.69463;AR;54189
AR-Posadas;Posadas;-27.36708;-55.89608;AR;323739
AR-Pontevedra;Pontevedra;-34.74785;-58.70072;AR;33515
AR-Pirané;Pirané;-25.73239;-59.10879;AR;19124
AR-Pilar;Pilar;-34.45866;-58.9142;AR;226517
AR-Paso_de_los_Libres;Paso de los Libres;-29.71251;-57.08771;AR;43805
AR-Oberá;Oberá;-27.48706;-55.11994;AR;56528
AR-Necochea;Necochea;-38.5545;-58.73961;AR;80478
AR-Muñiz;Muñiz;-34.55622;-58.70739;AR;26221
AR-Morón;Morón;-34.6509;-58.61956;AR;319934
AR-Monte_Caseros;Monte Caseros;-30.25359;-57.63626;AR;24671
AR-Montecarlo;Montecarlo;-26.5662;-54.757;AR;22229
AR-Merlo;Merlo;-34.66627;-58.72927;AR;244168
AR-Mercedes;Mercedes;-34.65145;-59.43068;AR;52949
AR-Mercedes;Mercedes;-29.18416;-58.07519;AR;30649
AR-Mar_del_Plata;Mar del Plata;-38.00042;-57.5562;AR;553935
AR-Luján;Luján;-34.57028;-59.105;AR;81749
AR-Los_Polvorines;Los Polvorines;-34.50316;-58.70596;AR;53354
AR-La_Plata;La Plata;-34.92145;-57.95453;AR;694167
AR-La_Paz;La Paz;-30.74179;-59.64517;AR;24716
AR-Jardín_América;Jardín América;-27.04346;-55.22698;AR;24905
AR-Hurlingham;Hurlingham;-34.5904;-58.62904;AR;60000
AR-Gualeguaychú;Gualeguaychú;-33.00937;-58.51722;AR;78676
AR-Gualeguay;Gualeguay;-33.14156;-59.30966;AR;33120
AR-Goya;Goya;-29.13995;-59.26343;AR;70245
AR-Gobernador_Virasora;Gobernador Virasora;-28.05;-56.03333;AR;28756
AR-General_Pacheco;General Pacheco;-34.45256;-58.64312;AR;43287
AR-General_José_de_San_Martín;General José de San Martín;-26.53743;-59.34158;AR;31758
AR-Garupá;Garupá;-27.48171;-55.82921;AR;28814
AR-Formosa;Formosa;-26.18489;-58.17313;AR;221383
AR-Fontana;Fontana;-27.41813;-59.02392;AR;26745
AR-Federal;Federal;-30.95465;-58.78326;AR;16333
AR-Esquina;Esquina;-30.01476;-59.5289;AR;26399
AR-El_Soberbio;El Soberbio;-27.29847;-54.19877;AR;19571
AR-Don_Torcuato;Don Torcuato;-34.49459;-58.62729;AR;64867
AR-Dolores;Dolores;-36.31321;-57.67918;AR;25190
AR-Curuzú_Cuatiá;Curuzú Cuatiá;-29.79171;-58.0546;AR;36390
AR-Corrientes;Corrientes;-27.46784;-58.8344;AR;339067
AR-Concordia;Concordia;-31.39296;-58.02089;AR;145210
AR-Concepción_del_Uruguay;Concepción del Uruguay;-32.48463;-58.23217;AR;67895
AR-Colegiales;Colegiales;-34.57365;-58.44924;AR;57000
AR-Chajarí;Chajarí;-30.75048;-57.97962;AR;30655
AR-Campana;Campana;-34.16327;-58.95919;AR;81612
AR-Buenos_Aires;Buenos Aires;-34.61315;-58.37723;AR;13076300
AR-Boedo;Boedo;-34.63333;-58.41667;AR;48231
AR-Berazategui;Berazategui;-34.76531;-58.21278;AR;167498
AR-Belgrano;Belgrano;-34.5627;-58.45829;AR;138942
AR-Barranqueras;Barranqueras;-27.48132;-58.93925;AR;50823
AR-Barracas;Barracas;-34.64966;-58.38341;AR;77474
AR-Balcarce;Balcarce;-37.84616;-58.25522;AR;38823
AR-Azul;Azul;-36.77698;-59.85854;AR;53941
AR-Avellaneda;Avellaneda;-29.11761;-59.65834;AR;23077
AR-Aristóbulo_del_Valle;Aristóbulo del Valle;-27.09625;-54.89626;AR;20683
AR-Zapala;Zapala;-38.89916;-70.05442;AR;31534
AR-Yerba_Buena;Yerba Buena;-26.81667;-65.31667;AR;50783
AR-Villa_Regina;Villa Regina;-39.1;-67.06667;AR;31209
AR-Villa_Paula_de_Sarmiento;Villa Paula de Sarmiento;-31.4933;-68.53838;AR;19092
AR-Villa_Nueva;Villa Nueva;-32.43293;-63.24763;AR;16841
AR-Villa_María;Villa María;-32.40751;-63.24016;AR;92453
AR-Villa_Dolores;Villa Dolores;-31.94585;-65.18958;AR;28009
AR-Villa_Constitución;Villa Constitución;-33.22778;-60.3297;AR;44271
AR-Villa_Carlos_Paz;Villa Carlos Paz;-31.42414;-64.49778;AR;69451
AR-Villa_Ángela;Villa Ángela;-27.57383;-60.71526;AR;43511
AR-Villa_Allende;Villa Allende;-31.29458;-64.29538;AR;21683
AR-Viedma;Viedma;-40.81345;-62.99668;AR;48940
AR-Victoria;Victoria;-32.61841;-60.15478;AR;25139
AR-Vera;Vera;-29.4593;-60.21261;AR;19797
AR-Venado_Tuerto;Venado Tuerto;-33.74556;-61.96885;AR;72340
AR-Veinticinco_de_Mayo;Veinticinco de Mayo;-35.4323;-60.17271;AR;24668
AR-Ushuaia;Ushuaia;-54.81084;-68.31591;AR;58028
AR-Unquillo;Unquillo;-31.23073;-64.31615;AR;15369
AR-Tres_Isletas;Tres Isletas;-26.34067;-60.43207;AR;24747
AR-Tres_Arroyos;Tres Arroyos;-38.37394;-60.27978;AR;47136
AR-Trelew;Trelew;-43.24895;-65.30505;AR;93442
AR-Termas_de_Río_Hondo;Termas de Río Hondo;-27.49362;-64.85972;AR;27838
AR-Tartagal;Tartagal;-22.51637;-63.80131;AR;60819
AR-Tafí_Viejo;Tafí Viejo;-26.73201;-65.25921;AR;48459
AR-Sunchales;Sunchales;-30.94404;-61.56148;AR;18757
AR-Santo_Tomé;Santo Tomé;-31.66274;-60.7653;AR;59072
AR-Santiago_del_Estero;Santiago del Estero;-27.79511;-64.26149;AR;354692
AR-Santa_Rosa;Santa Rosa;-36.61667;-64.28333;AR;111424
AR-Santa_Lucía;Santa Lucía;-31.53987;-68.49503;AR;43565
AR-Santa_Fe;Santa Fe;-31.64881;-60.70868;AR;489505
AR-San_Salvador_de_Jujuy;San Salvador de Jujuy;-24.19457;-65.29712;AR;305891
AR-San_Ramón_de_la_Nueva_Orán;San Ramón de la Nueva Orán;-23.13705;-64.32426;AR;74059
AR-San_Rafael;San Rafael;-34.61772;-68.33007;AR;109163
AR-San_Pedro_de_Jujuy;San Pedro de Jujuy;-24.23127;-64.86614;AR;58430
AR-San_Nicolás_de_los_Arroyos;San Nicolás de los Arroyos;-33.33425;-60.2108;AR;127742
AR-San_Miguel_de_Tucumán;San Miguel de Tucumán;-26.82414;-65.2226;AR;781023
AR-San_Martín_de_los_Andes;San Martín de los Andes;-40.15789;-71.35337;AR;23519
AR-San_Martín;San Martín;-33.08103;-68.46814;AR;82549
AR-San_Luis;San Luis;-33.29501;-66.33563;AR;183982
AR-San_Justo;San Justo;-30.78913;-60.59189;AR;21809
AR-San_Juan;San Juan;-31.5375;-68.53639;AR;447048
AR-San_José_de_Jáchal;San José de Jáchal;-30.24057;-68.74693;AR;21018
AR-San_Jorge;San Jorge;-31.89618;-61.85984;AR;16873
AR-San_Francisco;San Francisco;-31.42797;-62.08266;AR;59062
AR-San_Fernando_del_Valle_de_Catamarca;San Fernando del Valle de Catamarca;-28.46957;-65.78524;AR;188812
AR-San_Antonio_Oeste;San Antonio Oeste;-40.73193;-64.94769;AR;16966
AR-Salta;Salta;-24.7859;-65.41166;AR;512686
AR-Rufino;Rufino;-34.26827;-62.71262;AR;18361
AR-Rosario;Rosario;-32.94682;-60.63932;AR;1173533
AR-Río_Tercero;Río Tercero;-32.17301;-64.11405;AR;53389
AR-Río_Segundo;Río Segundo;-31.6526;-63.9099;AR;18155
AR-Río_Grande;Río Grande;-53.78769;-67.70946;AR;52681
AR-Río_Gallegos;Río Gallegos;-51.62261;-69.21813;AR;85700
AR-Río_Cuarto;Río Cuarto;-33.13067;-64.34992;AR;153757
AR-Río_Ceballos;Río Ceballos;-31.16486;-64.32241;AR;16632
AR-Rawson;Rawson;-43.30016;-65.10228;AR;26335
AR-Rafaela;Rafaela;-31.25033;-61.4867;AR;88713
AR-Quitilipi;Quitilipi;-26.86913;-60.21683;AR;32083
AR-Punta_Alta;Punta Alta;-38.87588;-62.07359;AR;57209
AR-Puerto_Madryn;Puerto Madryn;-42.7692;-65.03851;AR;64555
AR-Presidencia_Roque_Sáenz_Peña;Presidencia Roque Sáenz Peña;-26.78522;-60.43876;AR;81879
AR-Pocito;Pocito;-31.68333;-68.58333;AR;40969
AR-Plottier;Plottier;-38.96667;-68.23333;AR;25186
AR-Pergamino;Pergamino;-33.88995;-60.57357;AR;87652
AR-Pérez;Pérez;-32.99835;-60.76791;AR;24436
AR-Paraná;Paraná;-31.73271;-60.52897;AR;262295
AR-Palpalá;Palpalá;-24.25647;-65.21163;AR;48199
AR-Olavarría;Olavarría;-36.89272;-60.32254;AR;86320
AR-Nueve_de_Julio;Nueve de Julio;-35.44437;-60.88313;AR;34718
AR-Neuquén;Neuquén;-38.95161;-68.0591;AR;242092
AR-Morteros;Morteros;-30.71164;-61.99862;AR;15129
AR-Monteros;Monteros;-27.16741;-65.49832;AR;23771
AR-Mendoza;Mendoza;-32.89084;-68.82717;AR;876884
AR-Marcos_Juárez;Marcos Juárez;-32.6978;-62.10672;AR;24226
AR-Machagai;Machagai;-26.92614;-60.04955;AR;28070
AR-Lincoln;Lincoln;-34.86649;-61.5302;AR;41808
AR-Libertador_General_San_Martín;Libertador General San Martín;-23.80644;-64.78757;AR;49267
AR-Las_Breñas;Las Breñas;-27.08966;-61.08161;AR;26955
AR-La_Rioja;La Rioja;-29.41105;-66.85067;AR;162620
AR-La_Falda;La Falda;-31.08841;-64.48987;AR;15112
AR-La_Calera;La Calera;-31.34377;-64.33529;AR;24796
AR-Laboulaye;Laboulaye;-34.12662;-63.39119;AR;19908
AR-Junín;Junín;-34.58382;-60.94332;AR;85007
AR-Joaquín_V._González;Joaquín V. González;-25.11364;-64.12628;AR;19185
AR-Jesús_María;Jesús María;-30.98153;-64.09424;AR;26825
AR-Granadero_Baigorria;Granadero Baigorria;-32.85683;-60.71754;AR;32427
AR-Gobernador_Gálvez;Gobernador Gálvez;-33.03016;-60.64045;AR;74650
AR-General_Villegas;General Villegas;-35.03285;-63.01252;AR;16270
AR-General_Roca;General Roca;-39.03333;-67.58333;AR;73212
AR-General_Pinedo;General Pinedo;-27.31667;-61.28333;AR;15741
AR-General_Pico;General Pico;-35.65662;-63.75682;AR;57029
AR-General_Enrique_Mosconi;General Enrique Mosconi;-22.59588;-63.81255;AR;19811
AR-Gálvez;Gálvez;-32.02927;-61.22103;AR;18374
AR-Firmat;Firmat;-33.45937;-61.4832;AR;18294
AR-Famaillá;Famaillá;-27.05413;-65.40329;AR;30951
AR-Esquel;Esquel;-42.91147;-71.31947;AR;28486
AR-Esperanza;Esperanza;-31.4488;-60.93173;AR;35885
AR-Embarcación;Embarcación;-23.21003;-64.09965;AR;23961
AR-Embalse;Embalse;-32.18;-64.41809;AR;15900
AR-El_Bolsón;El Bolsón;-41.96051;-71.53336;AR;15537
AR-Diamante;Diamante;-32.06641;-60.63837;AR;19545
AR-Deán_Funes;Deán Funes;-30.42036;-64.34984;AR;20164
AR-Cutral-Có;Cutral-Có;-38.93424;-69.23052;AR;47380
AR-Cruz_del_Eje;Cruz del Eje;-30.72644;-64.80387;AR;28166
AR-Crespo;Crespo;-32.02873;-60.30658;AR;18296
AR-Cosquín;Cosquín;-31.24508;-64.46563;AR;19070
AR-Coronel_Suárez;Coronel Suárez;-37.45467;-61.93343;AR;27000
AR-Coronda;Coronda;-31.97263;-60.91983;AR;16975
AR-Córdoba;Córdoba;-31.4135;-64.18105;AR;1428214
AR-Comodoro_Rivadavia;Comodoro Rivadavia;-45.86413;-67.49656;AR;140850
AR-Cipolletti;Cipolletti;-38.93392;-67.99032;AR;75078
AR-Cinco_Saltos;Cinco Saltos;-38.82225;-68.06293;AR;19819
AR-Chivilcoy;Chivilcoy;-34.89566;-60.01667;AR;54514
AR-Chimbas;Chimbas;-31.48333;-68.53333;AR;73829
AR-Chilecito;Chilecito;-29.16195;-67.4974;AR;42248
AR-Charata;Charata;-27.21438;-61.18795;AR;27813
AR-Chacabuco;Chacabuco;-34.64167;-60.47389;AR;34587
AR-Centenario;Centenario;-38.82955;-68.1318;AR;28956
AR-Caucete;Caucete;-31.65179;-68.28105;AR;33609
AR-Catriel;Catriel;-37.87907;-67.7956;AR;15169
AR-Castelli;Castelli;-25.94679;-60.61947;AR;36588
AR-Casilda;Casilda;-33.04417;-61.16806;AR;32002
AR-Carcarañá;Carcarañá;-32.85679;-61.15331;AR;15619
AR-Capitán_Bermúdez;Capitán Bermúdez;-32.82262;-60.71852;AR;27060
AR-Cañada_de_Gómez;Cañada de Gómez;-32.81636;-61.39493;AR;36000
AR-Caleta_Olivia;Caleta Olivia;-46.43929;-67.52814;AR;36077
AR-Bell_Ville;Bell Ville;-32.62591;-62.68873;AR;35105
AR-Bella_Vista;Bella Vista;-27.03424;-65.30196;AR;15126
AR-Bahía_Blanca;Bahía Blanca;-38.71959;-62.27243;AR;276546
AR-Arroyo_Seco;Arroyo Seco;-33.15489;-60.50863;AR;20008
AR-Arroyito;Arroyito;-31.42022;-63.05002;AR;19577
AR-Añatuya;Añatuya;-28.46064;-62.83472;AR;20261
AR-Alta_Gracia;Alta Gracia;-31.65292;-64.42826;AR;40384
AR-Allen;Allen;-38.97736;-67.82714;AR;26083
AR-Alderetes;Alderetes;-26.81667;-65.13333;AR;38466
AR-Albardón;Albardón;-31.43722;-68.52556;AR;20413
AR-Aguilares;Aguilares;-27.4338;-65.61427;AR;32494
AR-Balvanera;Balvanera;-34.61032;-58.39766;AR;152198
AR-Villa_Santa_Rita;Villa Santa Rita;-34.61082;-58.481;AR;34000
AR-Villa_Mercedes;Villa Mercedes;-33.67571;-65.45783;AR;96781
AR-San_Miguel;San Miguel;-34.54335;-58.71229;AR;157532
AR-San_Carlos_de_Bariloche;San Carlos de Bariloche;-41.14557;-71.30822;AR;95394
AR-Adrogué;Adrogué;-34.80041;-58.38384;AR;28265
AR-Ingeniero_Pablo_Nogués;Ingeniero Pablo Nogués;-34.47775;-58.70652;AR;38470
AR-José_C._Paz;José C. Paz;-34.51541;-58.76813;AR;230208
AS-Pago_Pago;Pago Pago;-14.27806;-170.7025;AS;11500
AT-Wilten;Wilten;47.25829;11.38808;AT;18142
AT-Wiener_Neustadt;Wiener Neustadt;47.80485;16.23196;AT;44820
AT-Vienna;Vienna;48.20849;16.37208;AT;1691468
AT-Wetzelsdorf;Wetzelsdorf;47.05293;15.39923;AT;15687
AT-Wels;Wels;48.16667;14.03333;AT;16857
AT-Weinzierl_bei_Krems;Weinzierl bei Krems;48.4;15.6;AT;24092
AT-Villach;Villach;46.61028;13.85583;AT;58882
AT-Telfs;Telfs;47.30707;11.06817;AT;15229
AT-Straßgang;Straßgang;47.03333;15.4;AT;16268
AT-Stockerau;Stockerau;48.38333;16.21667;AT;16292
AT-Steyr;Steyr;48.04274;14.42127;AT;38331
AT-Simmering;Simmering;48.18333;16.43333;AT;101420
AT-Sankt_Pölten;Sankt Pölten;48.2;15.63333;AT;21911
AT-Sankt_Peter;Sankt Peter;47.05;15.46667;AT;15187
AT-Sankt_Peter;Sankt Peter;46.62978;14.34016;AT;20320
AT-Sankt_Martin;Sankt Martin;46.61667;14.28333;AT;20000
AT-Salzburg;Salzburg;47.79941;13.04399;AT;153377
AT-Pradl;Pradl;47.26539;11.4152;AT;32588
AT-Perchtoldsdorf;Perchtoldsdorf;48.11935;16.26607;AT;15047
AT-Ottakring;Ottakring;48.21667;16.3;AT;104627
AT-Mödling;Mödling;48.08605;16.28921;AT;20555
AT-Meidling;Meidling;48.16667;16.33333;AT;97624
AT-Lustenau;Lustenau;47.42642;9.65851;AT;22821
AT-Linz;Linz;48.30639;14.28611;AT;204846
AT-Klosterneuburg;Klosterneuburg;48.30521;16.32522;AT;15614
AT-Klagenfurt_am_Wörthersee;Klagenfurt am Wörthersee;46.62472;14.30528;AT;90610
AT-Innsbruck;Innsbruck;47.26266;11.39454;AT;132493
AT-Innere_Stadt;Innere Stadt;48.20906;16.37135;AT;16450
AT-Hötting;Hötting;47.26815;11.36868;AT;35043
AT-Hohenems;Hohenems;47.36667;9.68306;AT;16317
AT-Hietzing;Hietzing;48.18623;16.2965;AT;54265
AT-Hernals;Hernals;48.23333;16.26667;AT;57546
AT-Graz;Graz;47.06667;15.45;AT;222326
AT-Floridsdorf;Floridsdorf;48.25;16.4;AT;162779
AT-Feldkirch;Feldkirch;47.23306;9.6;AT;33420
AT-Eggenberg;Eggenberg;47.07;15.39871;AT;20511
AT-Dornbirn;Dornbirn;47.41427;9.74195;AT;49278
AT-Bregenz;Bregenz;47.50311;9.7471;AT;29471
AT-Baden;Baden;48.00543;16.23264;AT;26286
AT-Amstetten;Amstetten;48.1229;14.87206;AT;15559
AT-Favoriten;Favoriten;48.16116;16.38233;AT;201882
AT-Donaustadt;Donaustadt;48.2333;16.46002;AT;187007
AT-Jakomini;Jakomini;47.05441;15.44984;AT;32912
AT-Lend;Lend;47.08256;15.41589;AT;31147
AT-Geidorf;Geidorf;47.08393;15.444;AT;24767
AT-Sankt_Leonhard;Sankt Leonhard;47.06924;15.45784;AT;15853
AT-Andritz;Andritz;47.11387;15.42348;AT;19020
AT-Gries;Gries;47.06236;15.42421;AT;29363
AU-Scarborough;Scarborough;-31.89578;115.76431;AU;15258
AU-Rockingham;Rockingham;-32.27682;115.72978;AU;108022
AU-Perth;Perth;-31.95224;115.8614;AU;1896548
AU-Mount_Isa;Mount Isa;-20.72523;139.49727;AU;22785
AU-Morphett_Vale;Morphett Vale;-35.13333;138.51667;AU;22788
AU-Mandurah;Mandurah;-32.5269;115.7217;AU;83294
AU-Kwinana;Kwinana;-32.23013;115.78128;AU;30433
AU-Gosnells;Gosnells;-32.081;116.0054;AU;19914
AU-Geraldton;Geraldton;-28.77897;114.61459;AU;26872
AU-Gawler;Gawler;-34.60251;138.74902;AU;20006
AU-Darwin;Darwin;-12.46113;130.84185;AU;129062
AU-Busselton;Busselton;-33.65249;115.3455;AU;21898
AU-Bunbury;Bunbury;-33.32711;115.64137;AU;68248
AU-Alice_Springs;Alice Springs;-23.69748;133.88362;AU;25186
AU-Albany;Albany;-35.02692;117.88369;AU;33650
AU-Adelaide;Adelaide;-34.92866;138.59863;AU;1225235
AU-Wodonga;Wodonga;-36.12179;146.88809;AU;18582
AU-Wheelers_Hill;Wheelers Hill;-37.9;145.18333;AU;19369
AU-Westmead;Westmead;-33.80383;150.98768;AU;17835
AU-Werribee;Werribee;-37.9;144.66667;AU;40143
AU-Warrnambool;Warrnambool;-38.38176;142.48799;AU;29176
AU-Warragul;Warragul;-38.15912;145.93118;AU;15284
AU-Wantirna_South;Wantirna South;-37.88333;145.21667;AU;19081
AU-Wangaratta;Wangaratta;-36.35846;146.32056;AU;17897
AU-Wahroonga;Wahroonga;-33.71816;151.11561;AU;17652
AU-Upper_Coomera;Upper Coomera;-27.87683;153.28572;AU;24956
AU-Truganina;Truganina;-37.81667;144.75;AU;20646
AU-Traralgon;Traralgon;-38.19528;146.5415;AU;24605
AU-Townsville;Townsville;-19.26639;146.80569;AU;196219
AU-Toowoomba;Toowoomba;-27.56056;151.95386;AU;131258
AU-Thornbury;Thornbury;-37.75819;145.00583;AU;18292
AU-Thomastown;Thomastown;-37.68333;145.01667;AU;20441
AU-Templestowe;Templestowe;-37.75405;145.14864;AU;16305
AU-Tarneit;Tarneit;-37.83634;144.65952;AU;34372
AU-Taree;Taree;-31.91099;152.45387;AU;16359
AU-Tamworth;Tamworth;-31.09048;150.92905;AU;47597
AU-Sydney;Sydney;-33.86785;151.20732;AU;4627345
AU-Surry_Hills;Surry Hills;-33.88374;151.21282;AU;16492
AU-Surfers_Paradise;Surfers Paradise;-28.00274;153.42999;AU;31073
AU-Sunbury;Sunbury;-37.57742;144.72607;AU;35449
AU-Strathfield;Strathfield;-33.88096;151.07986;AU;25769
AU-Springvale;Springvale;-37.94853;145.15274;AU;21572
AU-South_Yarra;South Yarra;-37.83834;144.99149;AU;25237
AU-Southport;Southport;-27.96724;153.39796;AU;32965
AU-Shepparton;Shepparton;-36.38047;145.39867;AU;31148
AU-Seven_Hills;Seven Hills;-33.78333;150.93333;AU;19196
AU-Seaford;Seaford;-38.1;145.13333;AU;16148
AU-Saint_Kilda;Saint Kilda;-37.8676;144.98099;AU;20417
AU-Saint_Ives;Saint Ives;-33.72976;151.15977;AU;17036
AU-Saint_Albans;Saint Albans;-37.73333;144.8;AU;35091
AU-Ryde;Ryde;-33.8188;151.1062;AU;26385
AU-Rowville;Rowville;-37.93333;145.23333;AU;33160
AU-Rockhampton;Rockhampton;-23.38032;150.50595;AU;61724
AU-Rockdale;Rockdale;-33.95;151.13333;AU;15436
AU-Ringwood;Ringwood;-37.81667;145.23333;AU;17242
AU-Richmond;Richmond;-37.81819;145.00176;AU;27878
AU-Reservoir;Reservoir;-37.71667;145;AU;50092
AU-Quakers_Hill;Quakers Hill;-33.73333;150.88333;AU;26904
AU-Preston;Preston;-37.75;145.01667;AU;32499
AU-Port_Melbourne;Port Melbourne;-37.83961;144.94228;AU;15817
AU-Port_Macquarie;Port Macquarie;-31.43084;152.90894;AU;45692
AU-Point_Cook;Point Cook;-37.91482;144.75088;AU;49436
AU-Pascoe_Vale;Pascoe Vale;-37.73333;144.93333;AU;16850
AU-Palm_Beach;Palm Beach;-28.11694;153.46584;AU;15205
AU-Pakenham;Pakenham;-38.07018;145.47411;AU;45895
AU-Orange;Orange;-33.28397;149.10018;AU;38408
AU-North_Melbourne;North Melbourne;-37.79798;144.94512;AU;15395
AU-Northcote;Northcote;-37.76667;145;AU;24115
AU-Noble_Park;Noble Park;-37.96667;145.16667;AU;30921
AU-Newcastle;Newcastle;-32.92953;151.7801;AU;308308
AU-Nerang;Nerang;-27.98941;153.33633;AU;16739
AU-Narre_Warren;Narre Warren;-38.03333;145.3;AU;26389
AU-Narangba;Narangba;-27.20338;152.95923;AU;18217
AU-Mulgrave;Mulgrave;-37.92845;145.17708;AU;17647
AU-Mount_Waverley;Mount Waverley;-37.87709;145.12939;AU;33149
AU-Mount_Martha;Mount Martha;-38.26667;145.01667;AU;17788
AU-Mount_Gambier;Mount Gambier;-37.8318;140.77919;AU;25030
AU-Mount_Eliza;Mount Eliza;-38.18333;145.08333;AU;17358
AU-Mount_Druitt;Mount Druitt;-33.76667;150.81667;AU;16682
AU-Mosman;Mosman;-33.83902;151.23956;AU;27844
AU-Mornington;Mornington;-38.21792;145.03876;AU;23245
AU-Morayfield;Morayfield;-27.10876;152.94907;AU;21221
AU-South_Morang;South Morang;-37.65;145.1;AU;23874
AU-Mooroolbark;Mooroolbark;-37.78247;145.31682;AU;21503
AU-Mitcham;Mitcham;-37.81667;145.2;AU;15861
AU-Miranda;Miranda;-34.03857;151.10005;AU;15111
AU-Mill_Park;Mill Park;-37.66667;145.06667;AU;29474
AU-Mildura;Mildura;-34.18551;142.16251;AU;32936
AU-Merrylands;Merrylands;-33.83333;150.98333;AU;29508
AU-Mernda;Mernda;-37.60075;145.09555;AU;16370
AU-Melbourne;Melbourne;-37.814;144.96332;AU;4246375
AU-Mascot;Mascot;-33.92598;151.19347;AU;15985
AU-Maryborough;Maryborough;-25.54073;152.70493;AU;15479
AU-Marrickville;Marrickville;-33.90741;151.15546;AU;26140
AU-Maroubra;Maroubra;-33.95;151.23333;AU;30224
AU-Manly;Manly;-33.79798;151.28826;AU;16170
AU-Maitland;Maitland;-32.73308;151.5574;AU;67132
AU-Mackay;Mackay;-21.15345;149.16554;AU;74219
AU-Liverpool;Liverpool;-33.91938;150.92588;AU;27545
AU-Lilydale;Lilydale;-37.75;145.35;AU;16209
AU-Lidcombe;Lidcombe;-33.86436;151.0397;AU;19791
AU-Launceston;Launceston;-41.43876;147.13467;AU;106153
AU-Lara;Lara;-38.02388;144.40617;AU;15919
AU-Langwarrin;Langwarrin;-38.16667;145.16667;AU;22146
AU-Lalor;Lalor;-37.66667;145.01667;AU;22413
AU-Lakemba;Lakemba;-33.91972;151.07592;AU;16921
AU-Kogarah;Kogarah;-33.9681;151.13564;AU;15705
AU-Keysborough;Keysborough;-37.99116;145.17385;AU;25637
AU-Kew;Kew;-37.80639;145.03086;AU;24491
AU-Kensington;Kensington;-33.92019;151.22241;AU;15021
AU-Hornsby;Hornsby;-33.70244;151.09931;AU;22335
AU-Hobart;Hobart;-42.87936;147.32941;AU;216656
AU-Hawthorn_South;Hawthorn South;-37.8329;145.0367;AU;21177
AU-Hawthorn;Hawthorn;-37.81992;145.0358;AU;23051
AU-Hampton_Park;Hampton Park;-38.03333;145.25;AU;25377
AU-Griffith;Griffith;-34.28853;146.05093;AU;18154
AU-Greenvale;Greenvale;-37.63333;144.86667;AU;15338
AU-Greensborough;Greensborough;-37.70462;145.10302;AU;20407
AU-Granville;Granville;-33.8406;151.00748;AU;22889
AU-Goulburn;Goulburn;-34.75155;149.72086;AU;22645
AU-Gold_Coast;Gold Coast;-28.00029;153.43088;AU;591473
AU-Glen_Waverley;Glen Waverley;-37.87811;145.16476;AU;40238
AU-Glenroy;Glenroy;-37.7;144.93333;AU;22127
AU-Glen_Iris;Glen Iris;-37.86667;145.06667;AU;24838
AU-Glenferrie;Glenferrie;-37.83333;145.05;AU;21177
AU-Gladstone;Gladstone;-23.84852;151.25775;AU;30489
AU-Geelong;Geelong;-38.14711;144.36069;AU;226034
AU-Frankston_East;Frankston East;-38.13333;145.13333;AU;34457
AU-Frankston;Frankston;-38.14458;145.12291;AU;36239
AU-Footscray;Footscray;-37.8;144.9;AU;16550
AU-Fairfield;Fairfield;-33.86667;150.95;AU;17932
AU-Essendon;Essendon;-37.74981;144.9109;AU;20310
AU-Epping;Epping;-37.65;145.03333;AU;32696
AU-Epping;Epping;-33.77271;151.08184;AU;23435
AU-Engadine;Engadine;-34.06564;151.01266;AU;17141
AU-Eltham;Eltham;-37.73333;145.15;AU;17829
AU-Eight_Mile_Plains;Eight Mile Plains;-27.58333;153.1;AU;15364
AU-Eastwood;Eastwood;-33.79176;151.08057;AU;17792
AU-Earlwood;Earlwood;-33.9209;151.12506;AU;17592
AU-Dubbo;Dubbo;-32.24295;148.60484;AU;39863
AU-Doreen;Doreen;-37.6;145.15;AU;20954
AU-Doncaster_East;Doncaster East;-37.78761;145.14888;AU;28016
AU-Doncaster;Doncaster;-37.78828;145.12373;AU;20728
AU-Deer_Park;Deer Park;-37.76722;144.76657;AU;17980
AU-Deception_Bay;Deception Bay;-27.19354;153.02631;AU;19539
AU-Dandenong;Dandenong;-37.98333;145.2;AU;30193
AU-Croydon;Croydon;-37.8;145.28333;AU;26502
AU-Cronulla;Cronulla;-34.06251;151.14961;AU;17703
AU-Cranbourne;Cranbourne;-38.11342;145.28326;AU;19825
AU-Craigieburn;Craigieburn;-37.6;144.95;AU;50069
AU-Corio;Corio;-38.08333;144.38333;AU;15215
AU-Coorparoo;Coorparoo;-27.49325;153.05826;AU;15965
AU-Coogee;Coogee;-33.9205;151.25522;AU;15333
AU-Coffs_Harbour;Coffs Harbour;-30.29626;153.11351;AU;26672
AU-Coburg;Coburg;-37.75;144.96667;AU;25846
AU-Clayton;Clayton;-37.91667;145.11667;AU;20130
AU-Wollongong;Wollongong;-34.424;150.89345;AU;292190
AU-Chatswood;Chatswood;-33.8;151.18333;AU;25140
AU-Cessnock;Cessnock;-32.83211;151.35623;AU;15076
AU-Castle_Hill;Castle Hill;-33.73333;151;AU;39284
AU-Carrum_Downs;Carrum Downs;-38.09968;145.17248;AU;20444
AU-Carnegie;Carnegie;-37.89359;145.05534;AU;17121
AU-Carlton;Carlton;-37.8;144.96667;AU;18829
AU-Carlingford;Carlingford;-33.78269;151.04888;AU;24131
AU-Capalaba;Capalaba;-27.54333;153.20287;AU;17027
AU-Canberra;Canberra;-35.28346;149.12807;AU;367752
AU-Camberwell;Camberwell;-37.84205;145.0694;AU;21744
AU-Cairns;Cairns;-16.92366;145.76613;AU;153075
AU-Caboolture;Caboolture;-27.08465;152.9511;AU;26341
AU-Burwood;Burwood;-33.88333;151.1;AU;15935
AU-Burnie;Burnie;-41.05584;145.90375;AU;19972
AU-Bundaberg;Bundaberg;-24.86621;152.3479;AU;70826
AU-Buderim;Buderim;-26.68443;153.05705;AU;28774
AU-Brunswick;Brunswick;-37.76667;144.96667;AU;24176
AU-Broken_Hill;Broken Hill;-31.9652;141.4512;AU;18027
AU-Brisbane;Brisbane;-27.46794;153.02809;AU;2189878
AU-Brighton;Brighton;-37.90561;145.00279;AU;22742
AU-Boronia;Boronia;-37.86667;145.28333;AU;21857
AU-Blacktown;Blacktown;-33.76667;150.91667;AU;46942
AU-Bexley;Bexley;-33.95;151.11667;AU;19664
AU-Berwick;Berwick;-38.03333;145.35;AU;47074
AU-Bentleigh_East;Bentleigh East;-37.91928;145.05301;AU;27368
AU-Bentleigh;Bentleigh;-37.91806;145.03544;AU;15892
AU-Bendigo;Bendigo;-36.75818;144.28024;AU;100617
AU-Baulkham_Hills;Baulkham Hills;-33.75881;150.99292;AU;36792
AU-Bathurst;Bathurst;-33.41665;149.5806;AU;33110
AU-Banora_Point;Banora Point;-28.21298;153.53634;AU;15868
AU-Bankstown;Bankstown;-33.91667;151.03333;AU;32399
AU-Ballarat;Ballarat;-37.56622;143.84957;AU;97937
AU-Auburn;Auburn;-33.85;151.03333;AU;37245
AU-Ashfield;Ashfield;-33.88834;151.12274;AU;23749
AU-Armidale;Armidale;-30.50123;151.66553;AU;23741
AU-Albany_Creek;Albany Creek;-27.35364;152.96848;AU;15532
AU-Maroochydore;Maroochydore;-26.66008;153.09953;AU;18342
AU-Cheltenham;Cheltenham;-37.96944;145.04806;AU;21837
AU-Randwick;Randwick;-33.91439;151.24895;AU;30532
AU-Dee_Why;Dee Why;-33.7511;151.28886;AU;21145
AU-Umina_Beach;Umina Beach;-33.52314;151.31325;AU;16413
AU-Palmerston;Palmerston;-12.48602;130.9833;AU;25000
AU-Hervey_Bay;Hervey Bay;-25.28762;152.76936;AU;52230
AU-Sydney_Central_Business_District;Sydney Central Business District;-33.86482;151.20773;AU;25654
AU-Kingsford;Kingsford;-33.92399;151.22749;AU;15338
AU-Springfield_Lakes;Springfield Lakes;-27.66757;152.92488;AU;15081
AU-Bracken_Ridge;Bracken Ridge;-27.3171;153.03097;AU;16701
AU-Kallangur;Kallangur;-27.25204;152.99226;AU;20222
AU-North_Lakes;North Lakes;-27.22426;153.02075;AU;21260
AU-The_Gap;The Gap;-27.44187;152.93861;AU;16371
AU-Caroline_Springs;Caroline Springs;-37.74124;144.73631;AU;24077
AU-Hoppers_Crossing;Hoppers Crossing;-37.88264;144.7003;AU;38178
AU-Logan_City;Logan City;-27.63917;153.10944;AU;282673
AU-Carindale;Carindale;-27.50578;153.10236;AU;15418
AU-Parramatta;Parramatta;-33.8178;151.00348;AU;26876
AU-Ferntree_Gully;Ferntree Gully;-37.88461;145.29539;AU;26019
AU-Adelaide_Hills;Adelaide Hills;-34.91119;138.70735;AU;60394
AU-Canning_Vale;Canning Vale;-32.05799;115.91814;AU;32593
AU-Glenmore_Park;Glenmore Park;-33.79068;150.6693;AU;22863
AU-Southbank;Southbank;-37.8228;144.96434;AU;22397
AU-Helensvale;Helensvale;-27.91828;153.33275;AU;16839
AU-Melton_West;Melton West;-37.67852;144.56883;AU;17477
AU-Elwood;Elwood;-37.88214;144.98215;AU;15122
AU-Balwyn_North;Balwyn North;-37.79086;145.09386;AU;20015
AU-Malvern_East;Malvern East;-37.87397;145.04253;AU;21282
AU-Brighton_East;Brighton East;-37.90232;145.01734;AU;15644
AU-Redbank_Plains;Redbank Plains;-27.64613;152.85965;AU;19094
AU-Labrador;Labrador;-27.94402;153.39815;AU;18326
AU-St_Albans;St Albans;-37.74496;144.80049;AU;37629
AU-Endeavour_Hills;Endeavour Hills;-37.97695;145.25866;AU;24116
AU-Kellyville;Kellyville;-33.71028;150.95095;AU;27676
AU-Taylors_Lakes;Taylors Lakes;-37.69863;144.78631;AU;15422
AU-Cherrybrook;Cherrybrook;-33.72197;151.04607;AU;18588
AU-Roxburgh_Park;Roxburgh Park;-37.62581;144.92555;AU;21742
AU-Prestons;Prestons;-33.94185;150.8717;AU;15312
AU-Wyndham_Vale;Wyndham Vale;-37.89138;144.62368;AU;23093
AU-Ballajura;Ballajura;-31.84062;115.89549;AU;18408
AU-Willetton;Willetton;-32.05251;115.88782;AU;17887
AU-Glenwood;Glenwood;-33.73333;150.93284;AU;16040
AU-Cabramatta;Cabramatta;-33.89743;150.93446;AU;21634
AU-Campsie;Campsie;-33.9125;151.10279;AU;24487
AU-Casula;Casula;-33.95222;150.89949;AU;15695
AU-Cranebrook;Cranebrook;-33.7061;150.7094;AU;15649
AU-Greenacre;Greenacre;-33.90034;151.05563;AU;24361
AU-Greystanes;Greystanes;-33.82346;150.94607;AU;22591
AU-Ellenbrook;Ellenbrook;-31.76737;115.96936;AU;22209
AU-Alexandra_Hills;Alexandra Hills;-27.53221;153.22889;AU;16043
AU-Calamvale;Calamvale;-27.62329;153.04785;AU;16927
AU-Yagoona;Yagoona;-33.9049;151.01996;AU;17908
AU-Highton;Highton;-38.17058;144.3114;AU;18388
AU-Pacific_Pines;Pacific Pines;-27.93994;153.31436;AU;16605
AU-Robina;Robina;-28.07071;153.39329;AU;23140
AU-Paralowie;Paralowie;-34.75705;138.60819;AU;16386
AU-Baldivis;Baldivis;-32.32889;115.83047;AU;30472
AU-Dianella;Dianella;-31.88822;115.87186;AU;23034
AU-Morley;Morley;-31.88775;115.9099;AU;21134
AU-Thornlie;Thornlie;-32.06003;115.955;AU;22779
AU-Punchbowl;Punchbowl;-33.92893;151.05111;AU;20174
AU-Parafield_Gardens;Parafield Gardens;-34.78254;138.61077;AU;16872
AU-Hillside;Hillside;-37.69047;144.74172;AU;16976
AU-St_Clair;St Clair;-33.79728;150.7847;AU;19856
AU-Kirwan;Kirwan;-19.30323;146.72531;AU;21034
AU-Bundoora;Bundoora;-37.69825;145.05967;AU;28828
AU-Forest_Lake;Forest Lake;-27.62563;152.96883;AU;22581
AU-Sunnybank_Hills;Sunnybank Hills;-27.61025;153.05388;AU;17842
AU-Rochedale_South;Rochedale South;-27.59521;153.12332;AU;15073
AU-Cranbourne_East;Cranbourne East;-38.11531;145.29814;AU;15994
AU-Cranbourne_North;Cranbourne North;-38.07758;145.29871;AU;19900
AU-Narre_Warren_South;Narre Warren South;-38.04369;145.2923;AU;30132
AU-Dandenong_North;Dandenong North;-37.96649;145.2081;AU;22225
AU-Frankston_South;Frankston South;-38.16604;145.13643;AU;17826
AU-Sunshine_West;Sunshine West;-37.79117;144.81637;AU;18568
AU-Altona_Meadows;Altona Meadows;-37.88413;144.78367;AU;18874
AU-Hurstville;Hurstville;-33.9677;151.10149;AU;29744
AU-West_Pennant_Hills;West Pennant Hills;-33.7457;151.04764;AU;16162
AU-Melbourne_City_Centre;Melbourne City Centre;-37.81501;144.96657;AU;60057
AU-Adelaide_city_centre;Adelaide city centre;-34.92873;138.60334;AU;19820
AU-Wollongong_city_centre;Wollongong city centre;-34.4279;150.89268;AU;19108
AW-Tanki_Leendert;Tanki Leendert;12.53914;-70.02004;AW;21500
AW-San_Nicolas;San Nicolas;12.43624;-69.90713;AW;15200
AW-Oranjestad;Oranjestad;12.52398;-70.02703;AW;29998
AX-Mariehamn;Mariehamn;60.09726;19.93481;AX;10682
AZ-Xankandi;Xankandi;39.8177;46.7528;AZ;53100
AZ-Əhmədbəyli;Əhmədbəyli;39.88074;48.39158;AZ;17242
AZ-Shushi;Shushi;39.76006;46.74989;AZ;18662
AZ-Salyan;Salyan;39.59621;48.98479;AZ;36555
AZ-Saatlı;Saatlı;39.93214;48.36892;AZ;87000
AZ-Neftçala;Neftçala;39.3768;49.247;AZ;18661
AZ-Nakhchivan;Nakhchivan;39.20889;45.41222;AZ;64754
AZ-Lankaran;Lankaran;38.75428;48.85062;AZ;240300
AZ-Imishli;Imishli;39.87095;48.05995;AZ;34178
AZ-Fizuli;Fizuli;39.60094;47.14529;AZ;26765
AZ-Jalilabad;Jalilabad;39.20963;48.49186;AZ;36259
AZ-Pushkino;Pushkino;39.45833;48.545;AZ;18182
AZ-Beylagan;Beylagan;39.77556;47.61861;AZ;15599
AZ-Astara;Astara;38.45598;48.87498;AZ;15190
AZ-Şirvan;Şirvan;39.93778;48.929;AZ;70220
AZ-Ağdam;Ağdam;39.99096;46.92736;AZ;39451
AZ-Zaqatala;Zaqatala;41.6316;46.64479;AZ;18277
AZ-Zabrat;Zabrat;40.47746;49.94174;AZ;21396
AZ-Yevlakh;Yevlakh;40.61832;47.15014;AZ;127400
AZ-Yelenendorf;Yelenendorf;40.58584;46.3189;AZ;17816
AZ-Xaçmaz;Xaçmaz;41.46426;48.80565;AZ;37175
AZ-Ujar;Ujar;40.51902;47.65423;AZ;15741
AZ-Terter;Terter;40.34201;46.93161;AZ;18185
AZ-Sumqayıt;Sumqayıt;40.58972;49.66861;AZ;265150
AZ-Qaraçuxur;Qaraçuxur;40.39667;49.97361;AZ;72989
AZ-Shamkhor;Shamkhor;40.82975;46.0178;AZ;35421
AZ-Shamakhi;Shamakhi;40.63141;48.64137;AZ;29403
AZ-Sheki;Sheki;41.19194;47.17056;AZ;63000
AZ-Sabunçu;Sabunçu;40.4425;49.94806;AZ;20996
AZ-Sabirabad;Sabirabad;40.00869;48.47701;AZ;28075
AZ-Qusar;Qusar;41.4275;48.4302;AZ;16022
AZ-Quba;Quba;41.36108;48.51341;AZ;22405
AZ-Hacıqabul;Hacıqabul;40.03874;48.94286;AZ;23102
AZ-Qazax;Qazax;41.09246;45.36561;AZ;18903
AZ-Hacı_Zeynalabdin;Hacı Zeynalabdin;40.62333;49.55861;AZ;19019
AZ-Mingelchaur;Mingelchaur;40.76395;47.05953;AZ;95453
AZ-Maştağa;Maştağa;40.52983;50.00616;AZ;40092
AZ-Mardakan;Mardakan;40.49182;50.14292;AZ;15267
AZ-Lökbatan;Lökbatan;40.3256;49.73376;AZ;30694
AZ-Kyurdarmir;Kyurdarmir;40.34257;48.15649;AZ;19088
AZ-Khirdalan;Khirdalan;40.44808;49.75502;AZ;37949
AZ-Yeni_Suraxanı;Yeni Suraxanı;40.43026;50.03598;AZ;16127
AZ-Geoktschai;Geoktschai;40.65055;47.74219;AZ;35348
AZ-Hövsan;Hövsan;40.37444;50.08528;AZ;36293
AZ-Ganja;Ganja;40.68278;46.36056;AZ;313300
AZ-Divichibazar;Divichibazar;41.20117;48.98712;AZ;23248
AZ-Buzovna;Buzovna;40.51903;50.11438;AZ;24795
AZ-Biny_Selo;Biny Selo;40.45076;50.08686;AZ;24596
AZ-Barda;Barda;40.37577;47.12619;AZ;37372
AZ-Bilajari;Bilajari;40.4444;49.80566;AZ;42194
AZ-Baku;Baku;40.37767;49.89201;AZ;1116513
AZ-Amirdzhan;Amirdzhan;40.42639;49.98361;AZ;26798
AZ-Aghsu;Aghsu;40.57028;48.40087;AZ;17209
AZ-Ağdaş;Ağdaş;40.64699;47.4738;AZ;23528
AZ-Agdzhabedy;Agdzhabedy;40.05015;47.45937;AZ;34989
AZ-Bakıxanov;Bakıxanov;40.41894;49.96693;AZ;66686
BA-Zenica;Zenica;44.20169;17.90397;BA;164423
BA-Visoko;Visoko;43.98889;18.17806;BA;17890
BA-Velika_Kladuša;Velika Kladuša;45.18497;15.80579;BA;19330
BA-Tuzla;Tuzla;44.53842;18.66709;BA;142486
BA-Trebinje;Trebinje;42.71197;18.34362;BA;33178
BA-Travnik;Travnik;44.22637;17.66583;BA;31127
BA-Sarajevo;Sarajevo;43.84864;18.35644;BA;696731
BA-Prijedor;Prijedor;44.97991;16.71401;BA;36347
BA-Mostar;Mostar;43.34333;17.80806;BA;104518
BA-Gradačac;Gradačac;44.87851;18.42764;BA;15659
BA-Gračanica;Gračanica;44.70307;18.3101;BA;15758
BA-Goražde;Goražde;43.66795;18.97564;BA;17650
BA-Doboj;Doboj;44.73179;18.08698;BA;27235
BA-Cazin;Cazin;44.96694;15.94306;BA;21741
BA-Bugojno;Bugojno;44.05722;17.45083;BA;41378
BA-Brčko;Brčko;44.86995;18.81012;BA;38968
BA-Bosanska_Krupa;Bosanska Krupa;44.8825;16.15139;BA;15193
BA-Bijeljina;Bijeljina;44.75874;19.21437;BA;37692
BA-Bihać;Bihać;44.81694;15.87083;BA;75641
BA-Banja_Luka;Banja Luka;44.77842;17.19386;BA;221106
BA-Konjic;Konjic;43.65126;17.96082;BA;15950
BB-Bridgetown;Bridgetown;13.10732;-59.62021;BB;98511
BD-Thākurgaon;Thākurgaon;26.03097;88.46989;BD;71096
BD-Teknāf;Teknāf;20.85829;92.29773;BD;40557
BD-Tungi;Tungi;23.89154;90.40232;BD;337579
BD-Sylhet;Sylhet;24.89904;91.87198;BD;237000
BD-Dohār;Dohār;23.59311;90.14251;BD;45543
BD-Jamālpur;Jamālpur;24.91965;89.94812;BD;167900
BD-Shibganj;Shibganj;25.00146;89.32266;BD;378701
BD-Shibganj;Shibganj;24.68501;88.15638;BD;35961
BD-Sātkhira;Sātkhira;22.70817;89.07185;BD;128918
BD-Sirajganj;Sirajganj;24.45771;89.70802;BD;127481
BD-Netrakona;Netrakona;24.88352;90.72898;BD;79016
BD-Narsingdi;Narsingdi;23.92298;90.71768;BD;281080
BD-Sandwīp;Sandwīp;22.51409;91.45491;BD;52152
BD-Shāhzādpur;Shāhzādpur;24.17687;89.5988;BD;102420
BD-Rāmganj;Rāmganj;23.1006;90.84989;BD;55241
BD-Rājshāhi;Rājshāhi;24.374;88.60114;BD;700133
BD-Pirojpur;Pirojpur;22.57965;89.97521;BD;54418
BD-Panchagarh;Panchagarh;26.33338;88.55777;BD;48531
BD-Patiya;Patiya;22.29543;91.979;BD;51360
BD-Parbatipur;Parbatipur;25.66369;88.93093;BD;48020
BD-Nārāyanganj;Nārāyanganj;23.61352;90.50298;BD;223622
BD-Nālchiti;Nālchiti;22.63696;90.27195;BD;38703
BD-Nāgarpur;Nāgarpur;24.05783;89.87696;BD;238422
BD-Nageswari;Nageswari;25.96817;89.69153;BD;49425
BD-Mymensingh;Mymensingh;24.75636;90.40646;BD;225126
BD-Muktāgācha;Muktāgācha;24.76484;90.25698;BD;24684
BD-Mirzāpur;Mirzāpur;24.10287;90.09841;BD;41137
BD-Maulavi_Bāzār;Maulavi Bāzār;24.48888;91.77075;BD;57441
BD-Morrelgonj;Morrelgonj;22.45566;89.85584;BD;31647
BD-Mehendiganj;Mehendiganj;22.82257;90.52859;BD;39424
BD-Mathba;Mathba;22.28616;89.95883;BD;29760
BD-Lalmonirhat;Lalmonirhat;25.91719;89.44595;BD;65127
BD-Lākshām;Lākshām;23.24018;91.12143;BD;82290
BD-Comilla;Comilla;23.46186;91.18503;BD;389411
BD-Rangpur;Rangpur;25.74664;89.25166;BD;343122
BD-Kushtia;Kushtia;23.9028;89.11943;BD;135724
BD-Kālīganj;Kālīganj;23.40964;89.13801;BD;45631
BD-Jhingergācha;Jhingergācha;23.11134;89.09061;BD;41957
BD-Joypur_Hāt;Joypur Hāt;25.10147;89.02734;BD;73068
BD-Ishurdi;Ishurdi;24.12858;89.06573;BD;81995
BD-Habiganj;Habiganj;24.38044;91.41299;BD;88760
BD-Gaurnadi;Gaurnadi;22.97372;90.22376;BD;40519
BD-Gafargaon;Gafargaon;24.432;90.5585;BD;34177
BD-Feni;Feni;23.0144;91.3966;BD;84028
BD-Rāipur;Rāipur;23.0391;90.76808;BD;64652
BD-Sarankhola;Sarankhola;22.31006;89.79113;BD;36470
BD-Dhaka;Dhaka;23.7104;90.40744;BD;10356500
BD-Chilmāri;Chilmāri;25.55613;89.67097;BD;49736
BD-Chhāgalnāiya;Chhāgalnāiya;23.02475;91.51091;BD;39335
BD-Lālmohan;Lālmohan;22.33774;90.73708;BD;42220
BD-Khagrachhari;Khagrachhari;23.10787;91.97007;BD;50364
BD-Chhātak;Chhātak;25.03852;91.66958;BD;39218
BD-Bhātpāra_Abhaynagar;Bhātpāra Abhaynagar;23.01472;89.43936;BD;42653
BD-Bherāmāra;Bherāmāra;24.02452;88.99234;BD;38159
BD-Bhairab_Bāzār;Bhairab Bāzār;24.0524;90.9764;BD;105457
BD-Bāndarban;Bāndarban;22.19534;92.21946;BD;32523
BD-Kālia;Kālia;23.043;89.63094;BD;40492
BD-Baniachang;Baniachang;24.51863;91.35787;BD;37807
BD-Bājitpur;Bājitpur;24.21623;90.95002;BD;34560
BD-Bagerhat;Bagerhat;22.65657;89.79123;BD;266388
BD-Badarganj;Badarganj;25.67419;89.05377;BD;32600
BD-Narail;Narail;23.15509;89.49515;BD;55112
BD-Tungipāra;Tungipāra;22.89983;89.90326;BD;62210
BD-Sonārgaon;Sonārgaon;23.65;90.61667;BD;130000
BD-Sarishābāri;Sarishābāri;24.75127;89.83126;BD;81325
BD-Sakhipur;Sakhipur;24.31988;90.16943;BD;40869
BD-Raojān;Raojān;22.53511;91.91919;BD;25708
BD-Phultala;Phultala;22.71673;89.51194;BD;37985
BD-Pālang;Pālang;23.21824;90.35076;BD;67652
BD-Pār_Naogaon;Pār Naogaon;24.80418;88.94875;BD;192464
BD-Nabīnagar;Nabīnagar;23.88791;90.96792;BD;31671
BD-Lakshmīpur;Lakshmīpur;22.9443;90.83005;BD;61703
BD-Kesabpur;Kesabpur;22.90725;89.21954;BD;30926
BD-Hājīganj;Hājīganj;23.25191;90.85508;BD;44343
BD-Farīdpur;Farīdpur;23.60612;89.84064;BD;112187
BD-Dinājpur;Dinājpur;25.62745;88.63779;BD;206234
BD-Uttar_Char_Fasson;Uttar Char Fasson;22.22647;90.71275;BD;48305
BD-Chittagong;Chittagong;22.3384;91.83168;BD;3920222
BD-Char_Bhadrāsan;Char Bhadrāsan;23.30916;90.22698;BD;34423
BD-Bera;Bera;24.07821;89.63262;BD;39604
BD-Burhānuddin;Burhānuddin;22.49518;90.72391;BD;45670
BD-Sātkania;Sātkania;22.07639;92.04955;BD;52005
BD-Cox’s_Bāzār;Cox’s Bāzār;21.43973;92.00955;BD;253788
BD-Khulna;Khulna;22.80979;89.56439;BD;1342339
BD-Bhola;Bhola;22.68759;90.64403;BD;99079
BD-Barisāl;Barisāl;22.70497;90.37013;BD;202242
BD-Jessore;Jessore;23.16971;89.21371;BD;243987
BD-Pābna;Pābna;24.00644;89.2372;BD;186781
BD-Tāngāil;Tāngāil;24.24984;89.91655;BD;180144
BD-Bogra;Bogra;24.85098;89.37108;BD;210000
BD-Pīrgaaj;Pīrgaaj;25.85587;88.35943;BD;34606
BD-Nawābganj;Nawābganj;24.59025;88.27444;BD;142361
BD-Mādārīpur;Mādārīpur;23.17097;90.20935;BD;84789
BD-Sherpur;Sherpur;25.01881;90.01751;BD;107419
BD-Kishorganj;Kishorganj;24.43944;90.78291;BD;90690
BD-Manikchari;Manikchari;22.83957;91.84128;BD;24813
BD-Bhāndāria;Bhāndāria;22.48898;90.06273;BD;30219
BD-Bibir_Hat;Bibir Hat;22.68347;91.79058;BD;89030
BD-Saidpur;Saidpur;25.77769;88.89169;BD;199422
BD-Puthia;Puthia;24.36537;88.83431;BD;159406
BD-Natore;Natore;24.41112;88.98673;BD;369138
BD-Azimpur;Azimpur;23.7298;90.3854;BD;96641
BD-Paltan;Paltan;23.73625;90.41426;BD;184492
BD-Joymontop;Joymontop;23.78789;90.16472;BD;56000
BE-Zwijndrecht;Zwijndrecht;51.21979;4.32664;BE;18249
BE-Zwevegem;Zwevegem;50.81268;3.33848;BE;23358
BE-Zottegem;Zottegem;50.86955;3.81052;BE;24434
BE-Zonhoven;Zonhoven;50.99064;5.36819;BE;19922
BE-Zoersel;Zoersel;51.26825;4.71296;BE;20642
BE-Zemst;Zemst;50.98318;4.46079;BE;21096
BE-Zele;Zele;51.06566;4.0403;BE;20236
BE-Zedelgem;Zedelgem;51.14236;3.1368;BE;21968
BE-Zaventem;Zaventem;50.88365;4.47298;BE;28188
BE-Wuustwezel;Wuustwezel;51.39214;4.59546;BE;18117
BE-Willebroek;Willebroek;51.06041;4.36019;BE;22808
BE-Wevelgem;Wevelgem;50.8;3.16667;BE;30954
BE-Wetteren;Wetteren;51.00526;3.88341;BE;22930
BE-Westerlo;Westerlo;51.09049;4.91544;BE;22579
BE-Wervik;Wervik;50.78069;3.03854;BE;17340
BE-Wavre;Wavre;50.71717;4.60138;BE;32112
BE-Waterloo;Waterloo;50.71469;4.3991;BE;29778
BE-Waregem;Waregem;50.88898;3.42756;BE;35896
BE-Walcourt;Walcourt;50.25401;4.43796;BE;17501
BE-Visé;Visé;50.7376;5.69907;BE;17054
BE-Vilvoorde;Vilvoorde;50.92814;4.42938;BE;36955
BE-Verviers;Verviers;50.58907;5.86241;BE;52824
BE-Turnhout;Turnhout;51.32254;4.94471;BE;39654
BE-Tubize;Tubize;50.69059;4.2009;BE;21859
BE-Tournai;Tournai;50.60715;3.38932;BE;67721
BE-Torhout;Torhout;51.0656;3.10085;BE;18933
BE-Tongeren;Tongeren;50.78054;5.46484;BE;29816
BE-Tienen;Tienen;50.80745;4.9378;BE;31743
BE-Tielt;Tielt;50.99931;3.32707;BE;19299
BE-Tessenderlo;Tessenderlo;51.06513;5.08856;BE;16574
BE-Tervuren;Tervuren;50.82372;4.51418;BE;20623
BE-Temse;Temse;51.12794;4.21372;BE;26054
BE-Stekene;Stekene;51.2099;4.03651;BE;16989
BE-Stabroek;Stabroek;51.33189;4.37127;BE;17294
BE-Soumagne;Soumagne;50.61385;5.74679;BE;15237
BE-Soignies;Soignies;50.57904;4.07129;BE;24869
BE-Sint-Truiden;Sint-Truiden;50.81679;5.18647;BE;37859
BE-Sint-Pieters-Leeuw;Sint-Pieters-Leeuw;50.77926;4.24355;BE;30446
BE-Sint-Niklaas;Sint-Niklaas;51.16509;4.1437;BE;69010
BE-Sint-Kruis;Sint-Kruis;51.21399;3.24949;BE;16000
BE-Sint-Katelijne-Waver;Sint-Katelijne-Waver;51.06691;4.53469;BE;19487
BE-Sint-Gillis-Waas;Sint-Gillis-Waas;51.21914;4.12374;BE;17658
BE-Sint-Genesius-Rode;Sint-Genesius-Rode;50.74645;4.35754;BE;17990
BE-Seraing;Seraing;50.58362;5.50115;BE;60737
BE-Schoten;Schoten;51.25251;4.50268;BE;33622
BE-Schilde;Schilde;51.24107;4.58336;BE;20373
BE-Saint-Nicolas;Saint-Nicolas;50.62837;5.53243;BE;22586
BE-Saint-Ghislain;Saint-Ghislain;50.44816;3.81886;BE;22500
BE-Rotselaar;Rotselaar;50.95302;4.71665;BE;15007
BE-Ronse;Ronse;50.74574;3.6005;BE;24204
BE-Roeselare;Roeselare;50.94653;3.12269;BE;56016
BE-Rixensart;Rixensart;50.71229;4.52529;BE;21616
BE-Riemst;Riemst;50.80995;5.60131;BE;15809
BE-Ranst;Ranst;51.18983;4.56533;BE;17405
BE-Quaregnon;Quaregnon;50.44067;3.8653;BE;18491
BE-Puurs;Puurs;51.07409;4.28844;BE;15944
BE-Putte;Putte;51.05337;4.63263;BE;15276
BE-Poperinge;Poperinge;50.85386;2.72659;BE;19537
BE-Pont-à-Celles;Pont-à-Celles;50.50518;4.36887;BE;15909
BE-Péruwelz;Péruwelz;50.50819;3.59373;BE;16647
BE-Peer;Peer;51.1303;5.45952;BE;15551
BE-Overijse;Overijse;50.77436;4.53461;BE;23486
BE-Oupeye;Oupeye;50.71184;5.6468;BE;23594
BE-Oudenaarde;Oudenaarde;50.85168;3.60891;BE;27935
BE-Oostkamp;Oostkamp;51.15432;3.23128;BE;21489
BE-Ostend;Ostend;51.21551;2.927;BE;69011
BE-Nivelles;Nivelles;50.59833;4.32848;BE;24149
BE-Ninove;Ninove;50.82776;4.02657;BE;34795
BE-Nijlen;Nijlen;51.16096;4.67008;BE;20792
BE-Neerpelt;Neerpelt;51.22807;5.4427;BE;16122
BE-Namur;Namur;50.4669;4.86746;BE;106284
BE-Mouscron;Mouscron;50.74497;3.20639;BE;52069
BE-Mortsel;Mortsel;51.16697;4.45127;BE;24525
BE-Morlanwelz-Mariemont;Morlanwelz-Mariemont;50.45502;4.24519;BE;18233
BE-Mons;Mons;50.45413;3.95229;BE;91277
BE-Mol;Mol;51.19188;5.11662;BE;32659
BE-Middelkerke;Middelkerke;51.18532;2.82077;BE;17789
BE-Merelbeke;Merelbeke;50.99447;3.74621;BE;22047
BE-Menen;Menen;50.79722;3.12245;BE;31916
BE-Meise;Meise;50.93934;4.32655;BE;18497
BE-Mechelen;Mechelen;51.02574;4.47762;BE;77530
BE-Marche-en-Famenne;Marche-en-Famenne;50.22678;5.34416;BE;16856
BE-Manage;Manage;50.50312;4.23589;BE;22196
BE-Maldegem;Maldegem;51.20737;3.44511;BE;22092
BE-Maasmechelen;Maasmechelen;50.96545;5.69452;BE;36251
BE-Maaseik;Maaseik;51.09802;5.78379;BE;23684
BE-Louvain-la-Neuve;Louvain-la-Neuve;50.66829;4.61443;BE;29521
BE-Londerzeel;Londerzeel;51.00468;4.30304;BE;17274
BE-Lommel;Lommel;51.23074;5.31349;BE;31993
BE-Lokeren;Lokeren;51.10364;3.99339;BE;37567
BE-Lochristi;Lochristi;51.09644;3.83194;BE;19696
BE-Lille;Lille;51.24197;4.82313;BE;15466
BE-Lier;Lier;51.13128;4.57041;BE;33272
BE-Liège;Liège;50.63373;5.56749;BE;182597
BE-Leuven;Leuven;50.87959;4.70093;BE;92892
BE-Lessines;Lessines;50.71104;3.83579;BE;17687
BE-Lede;Lede;50.96626;3.98594;BE;16813
BE-Lebbeke;Lebbeke;51.00464;4.13457;BE;17372
BE-Lanaken;Lanaken;50.89318;5.6468;BE;24771
BE-La_Louvière;La Louvière;50.48657;4.18785;BE;76668
BE-Kortrijk;Kortrijk;50.82803;3.26487;BE;73879
BE-Kortenberg;Kortenberg;50.88982;4.54353;BE;17774
BE-Kontich;Kontich;51.13213;4.44706;BE;20290
BE-Koksijde;Koksijde;51.11642;2.63772;BE;21027
BE-Knokke-Heist;Knokke-Heist;51.35;3.26667;BE;33781
BE-Kasterlee;Kasterlee;51.24118;4.96651;BE;17765
BE-Kapellen;Kapellen;51.31377;4.43539;BE;26410
BE-Kalmthout;Kalmthout;51.38442;4.47556;BE;17485
BE-Izegem;Izegem;50.91396;3.21378;BE;26382
BE-Ieper;Ieper;50.85114;2.88569;BE;35089
BE-Huy;Huy;50.51894;5.23284;BE;19973
BE-Houthalen;Houthalen;51.03427;5.37429;BE;30050
BE-Hoogstraten;Hoogstraten;51.40029;4.76034;BE;18524
BE-Hoboken;Hoboken;51.17611;4.34844;BE;34443
BE-Heusden;Heusden;51.03664;5.28013;BE;31017
BE-Herzele;Herzele;50.88681;3.89014;BE;16523
BE-Herve;Herve;50.64083;5.79353;BE;16544
BE-Herstal;Herstal;50.66415;5.62346;BE;36503
BE-Herentals;Herentals;51.17655;4.83248;BE;25912
BE-Herent;Herent;50.90861;4.67056;BE;19218
BE-Helchteren;Helchteren;51.05591;5.38244;BE;30050
BE-Heist-op-den-Berg;Heist-op-den-Berg;51.07537;4.72827;BE;37873
BE-Hasselt;Hasselt;50.93106;5.33781;BE;69222
BE-Harelbeke;Harelbeke;50.85343;3.30935;BE;25978
BE-Hamme;Hamme;51.09822;4.13705;BE;22891
BE-Halle;Halle;50.73385;4.23454;BE;34479
BE-Haaltert;Haaltert;50.90634;4.00093;BE;17129
BE-Grimbergen;Grimbergen;50.93409;4.37213;BE;33561
BE-Geraardsbergen;Geraardsbergen;50.77343;3.88223;BE;30807
BE-Gent;Gent;51.05;3.71667;BE;231493
BE-Genk;Genk;50.965;5.50082;BE;63666
BE-Gembloux;Gembloux;50.56149;4.69889;BE;21676
BE-Geel;Geel;51.16557;4.98917;BE;34697
BE-Frameries;Frameries;50.40578;3.89603;BE;20598
BE-Fleurus;Fleurus;50.48351;4.55006;BE;22080
BE-Fléron;Fléron;50.61516;5.68062;BE;15994
BE-Flémalle-Haute;Flémalle-Haute;50.59994;5.44471;BE;25144
BE-Evergem;Evergem;51.11306;3.70976;BE;31615
BE-Eupen;Eupen;50.6279;6.03647;BE;18029
BE-Essen;Essen;51.46791;4.46901;BE;16754
BE-Eeklo;Eeklo;51.18703;3.55654;BE;19116
BE-Edegem;Edegem;51.15662;4.44504;BE;21839
BE-Duffel;Duffel;51.09554;4.50903;BE;16011
BE-Dour;Dour;50.39583;3.77792;BE;16861
BE-Dilbeek;Dilbeek;50.84799;4.25972;BE;39482
BE-Diksmuide;Diksmuide;51.03248;2.86384;BE;15515
BE-Diest;Diest;50.98923;5.05062;BE;22516
BE-Diepenbeek;Diepenbeek;50.90769;5.41875;BE;17699
BE-Deurne;Deurne;51.22134;4.46595;BE;78747
BE-Destelbergen;Destelbergen;51.05952;3.79899;BE;16853
BE-Dendermonde;Dendermonde;51.02869;4.10106;BE;43055
BE-Denderleeuw;Denderleeuw;50.88506;4.07601;BE;16969
BE-Deinze;Deinze;50.98175;3.53096;BE;29815
BE-Courcelles;Courcelles;50.46379;4.3747;BE;29473
BE-Colfontaine;Colfontaine;50.4141;3.85569;BE;19964
BE-Chaudfontaine;Chaudfontaine;50.5828;5.6341;BE;20960
BE-Châtelet;Châtelet;50.40338;4.52826;BE;35238
BE-Chasse_Royale;Chasse Royale;50.42842;3.95001;BE;0
BE-Charleroi;Charleroi;50.41136;4.44448;BE;200132
BE-Brussels;Brussels;50.85045;4.34878;BE;1019022
BE-Brugge;Brugge;51.20892;3.22424;BE;116709
BE-Brecht;Brecht;51.35024;4.63829;BE;25908
BE-Brasschaat;Brasschaat;51.2912;4.49182;BE;37040
BE-Braine-le-Comte;Braine-le-Comte;50.60979;4.14658;BE;20133
BE-Braine-l'Alleud;Braine-l'Alleud;50.68363;4.36784;BE;37512
BE-Boussu;Boussu;50.43417;3.7944;BE;20058
BE-Bornem;Bornem;51.09716;4.24364;BE;19997
BE-Boom;Boom;51.09242;4.3717;BE;15810
BE-Blankenberge;Blankenberge;51.31306;3.13227;BE;18230
BE-Binche;Binche;50.41155;4.16469;BE;32030
BE-Bilzen;Bilzen;50.87325;5.5184;BE;29622
BE-Beveren;Beveren;51.21187;4.25633;BE;45179
BE-Beringen;Beringen;51.04954;5.22606;BE;40930
BE-Beersel;Beersel;50.76589;4.3002;BE;23228
BE-Beerse;Beerse;51.31927;4.85304;BE;16208
BE-Balen;Balen;51.16837;5.17027;BE;19978
BE-Ath;Ath;50.62937;3.77801;BE;26681
BE-Asse;Asse;50.91011;4.19836;BE;28985
BE-Arlon;Arlon;49.68333;5.81667;BE;26179
BE-Antwerpen;Antwerpen;51.21989;4.40346;BE;459805
BE-Ans;Ans;50.6623;5.52029;BE;27297
BE-Andenne;Andenne;50.48941;5.09513;BE;24055
BE-Aarschot;Aarschot;50.98715;4.83695;BE;27656
BE-Aalter;Aalter;51.09017;3.44693;BE;18802
BE-Aalst;Aalst;50.93604;4.0355;BE;77534
BF-Zorgo;Zorgo;12.24922;-0.61527;BF;23892
BF-Yako;Yako;12.9591;-2.26075;BF;22904
BF-Tougan;Tougan;13.0725;-3.0694;BF;17590
BF-Titao;Titao;13.76667;-2.06667;BF;19131
BF-Tenkodogo;Tenkodogo;11.78;-0.36972;BF;37658
BF-Réo;Réo;12.31963;-2.47094;BF;37535
BF-Pô;Pô;11.16972;-1.145;BF;17924
BF-Ouahigouya;Ouahigouya;13.58278;-2.42158;BF;61096
BF-Ouagadougou;Ouagadougou;12.36566;-1.53388;BF;1086505
BF-Nouna;Nouna;12.72939;-3.86305;BF;29048
BF-Manga;Manga;11.66361;-1.07306;BF;15173
BF-Léo;Léo;11.10033;-2.10654;BF;26884
BF-Koupéla;Koupéla;12.17864;-0.35103;BF;32052
BF-Koudougou;Koudougou;12.25263;-2.36272;BF;87347
BF-Kongoussi;Kongoussi;13.32583;-1.53472;BF;26338
BF-Kombissiri;Kombissiri;12.06884;-1.33644;BF;30137
BF-Kokologo;Kokologo;12.19392;-1.87687;BF;25958
BF-Kaya;Kaya;13.09167;-1.08444;BF;39229
BF-Houndé;Houndé;11.5;-3.51667;BF;36593
BF-Gourcy;Gourcy;13.20776;-2.35893;BF;16765
BF-Garango;Garango;11.8;-0.55056;BF;29076
BF-Fada_N'gourma;Fada N'gourma;12.06157;0.35843;BF;33910
BF-Dori;Dori;14.0354;-0.0345;BF;37806
BF-Djibo;Djibo;14.0994;-1.62554;BF;22223
BF-Diapaga;Diapaga;12.07305;1.78838;BF;26013
BF-Dédougou;Dédougou;12.46338;-3.46075;BF;45341
BF-Boussé;Boussé;12.66121;-1.89515;BF;15868
BF-Boulsa;Boulsa;12.66664;-0.57469;BF;17489
BF-Bobo-Dioulasso;Bobo-Dioulasso;11.17715;-4.2979;BF;360106
BF-Banfora;Banfora;10.63333;-4.76667;BF;60288
BG-Yambol;Yambol;42.48333;26.5;BG;80116
BG-Vratsa;Vratsa;43.21;23.5625;BG;64941
BG-Vidin;Vidin;43.99159;22.88236;BG;54409
BG-Velingrad;Velingrad;42.02754;23.99155;BG;24036
BG-Veliko_Tŭrnovo;Veliko Tŭrnovo;43.08124;25.62904;BG;66217
BG-Varna;Varna;43.21667;27.91667;BG;312770
BG-Targovishte;Targovishte;43.2512;26.57215;BG;37774
BG-Troyan;Troyan;42.89427;24.71589;BG;21162
BG-Dobrich;Dobrich;43.56667;27.83333;BG;94831
BG-Svishtov;Svishtov;43.61875;25.35033;BG;32256
BG-Svilengrad;Svilengrad;41.76667;26.2;BG;19279
BG-Stara_Zagora;Stara Zagora;42.43278;25.64194;BG;143431
BG-Dupnitsa;Dupnitsa;42.26667;23.11667;BG;34764
BG-Sofia;Sofia;42.69751;23.32415;BG;1152556
BG-Smolyan;Smolyan;41.57439;24.71204;BG;32069
BG-Sliven;Sliven;42.68583;26.32917;BG;96368
BG-Silistra;Silistra;44.1171;27.26056;BG;39715
BG-Shumen;Shumen;43.27064;26.92286;BG;87283
BG-Sevlievo;Sevlievo;43.02583;25.11361;BG;24582
BG-Sandanski;Sandanski;41.56667;23.28333;BG;26459
BG-Samokov;Samokov;42.337;23.5528;BG;26765
BG-Ruse;Ruse;43.84872;25.9534;BG;156238
BG-Razgrad;Razgrad;43.53333;26.51667;BG;38285
BG-Rakovski;Rakovski;42.27408;24.94083;BG;15782
BG-Parvomay;Parvomay;42.1;25.21667;BG;17000
BG-Popovo;Popovo;43.35;26.23333;BG;16571
BG-Plovdiv;Plovdiv;42.15;24.75;BG;340494
BG-Pleven;Pleven;43.41667;24.61667;BG;118675
BG-Petrich;Petrich;41.39846;23.20702;BG;30308
BG-Peshtera;Peshtera;42.03372;24.29995;BG;18676
BG-Pernik;Pernik;42.6;23.03333;BG;82467
BG-Pazardzhik;Pazardzhik;42.2;24.33333;BG;75977
BG-Panagyurishte;Panagyurishte;42.49518;24.19021;BG;19389
BG-Nova_Zagora;Nova Zagora;42.48333;26.01667;BG;24340
BG-Montana;Montana;43.4125;23.225;BG;47445
BG-Lovech;Lovech;43.13333;24.71667;BG;42211
BG-Lom;Lom;43.82106;23.23677;BG;26594
BG-Kyustendil;Kyustendil;42.28389;22.69111;BG;48286
BG-Kardzhali;Kardzhali;41.65;25.36667;BG;51000
BG-Haskovo;Haskovo;41.93415;25.55557;BG;79699
BG-Harmanli;Harmanli;41.93333;25.9;BG;18931
BG-Kazanlak;Kazanlak;42.61667;25.4;BG;55196
BG-Karnobat;Karnobat;42.65;26.98333;BG;19709
BG-Karlovo;Karlovo;42.63333;24.8;BG;19958
BG-Gotse_Delchev;Gotse Delchev;41.56667;23.73333;BG;20471
BG-Gorna_Oryahovitsa;Gorna Oryahovitsa;43.12778;25.70167;BG;32792
BG-Gabrovo;Gabrovo;42.87472;25.33417;BG;66175
BG-Dimitrovgrad;Dimitrovgrad;42.05;25.6;BG;43288
BG-Chirpan;Chirpan;42.2;25.33333;BG;17243
BG-Burgas;Burgas;42.50606;27.46781;BG;195966
BG-Botevgrad;Botevgrad;42.9;23.78333;BG;20909
BG-Blagoevgrad;Blagoevgrad;42.01667;23.1;BG;71306
BG-Berkovitsa;Berkovitsa;43.23581;23.12738;BG;15027
BG-Aytos;Aytos;42.7;27.25;BG;20986
BG-Asparuhovo;Asparuhovo;43.18067;27.88823;BG;27000
BG-Asenovgrad;Asenovgrad;42.01667;24.86667;BG;52170
BH-Sitrah;Sitrah;26.15472;50.62056;BH;37657
BH-Madīnat_‘Īsá;Madīnat ‘Īsá;26.17361;50.54778;BH;38090
BH-Jidd_Ḩafş;Jidd Ḩafş;26.21861;50.54778;BH;31735
BH-Madīnat_Ḩamad;Madīnat Ḩamad;26.11528;50.50694;BH;52718
BH-Dār_Kulayb;Dār Kulayb;26.06861;50.50389;BH;65466
BH-Al_Muharraq;Al Muharraq;26.25722;50.61194;BH;97458
BH-Manama;Manama;26.22787;50.58565;BH;147074
BH-Ar_Rifā‘;Ar Rifā‘;26.13;50.555;BH;79550
BI-Makamba;Makamba;-4.1348;29.804;BI;19642
BI-Bururi;Bururi;-3.94877;29.62438;BI;19740
BI-Bujumbura;Bujumbura;-3.38193;29.36142;BI;331700
BI-Muramvya;Muramvya;-3.2682;29.6079;BI;18041
BI-Gitega;Gitega;-3.42708;29.92463;BI;41000
BI-Ruyigi;Ruyigi;-3.47639;30.24861;BI;38458
BI-Ngozi;Ngozi;-2.9075;29.8306;BI;21506
BI-Kayanza;Kayanza;-2.9221;29.6293;BI;19443
BI-Muyinga;Muyinga;-2.8451;30.3414;BI;71076
BI-Rutana;Rutana;-3.9279;29.992;BI;20893
BJ-Tchaourou;Tchaourou;8.88649;2.59753;BJ;20971
BJ-Tanguiéta;Tanguiéta;10.62118;1.26651;BJ;19833
BJ-Savé;Savé;8.03424;2.4866;BJ;75970
BJ-Savalou;Savalou;7.92807;1.97558;BJ;30187
BJ-Sakété;Sakété;6.73618;2.65866;BJ;30111
BJ-Porto-Novo;Porto-Novo;6.49646;2.60359;BJ;234168
BJ-Pobé;Pobé;6.98008;2.6649;BJ;32983
BJ-Parakou;Parakou;9.33716;2.63031;BJ;163753
BJ-Ouidah;Ouidah;6.36307;2.08506;BJ;83503
BJ-Nikki;Nikki;9.94009;3.21075;BJ;54009
BJ-Natitingou;Natitingou;10.30416;1.37962;BJ;80892
BJ-Malanville;Malanville;11.86819;3.38327;BJ;37117
BJ-Lokossa;Lokossa;6.63869;1.71674;BJ;86971
BJ-Kétou;Kétou;7.36332;2.59978;BJ;22341
BJ-Kandi;Kandi;11.13417;2.93861;BJ;109701
BJ-Dogbo;Dogbo;6.79911;1.78073;BJ;41312
BJ-Djougou;Djougou;9.70853;1.66598;BJ;237040
BJ-Dassa-Zoumé;Dassa-Zoumé;7.75;2.18333;BJ;21672
BJ-Cové;Cové;7.22097;2.34017;BJ;38566
BJ-Cotonou;Cotonou;6.36536;2.41833;BJ;780000
BJ-Comé;Comé;6.40764;1.88198;BJ;29208
BJ-Bohicon;Bohicon;7.17826;2.0667;BJ;125092
BJ-Bembèrèkè;Bembèrèkè;10.22827;2.66335;BJ;24006
BJ-Bassila;Bassila;9.00814;1.6654;BJ;23616
BJ-Banikoara;Banikoara;11.29845;2.43856;BJ;22487
BJ-Aplahoué;Aplahoué;6.93333;1.68333;BJ;19862
BJ-Allada;Allada;6.66547;2.15138;BJ;20094
BJ-Abomey-Calavi;Abomey-Calavi;6.44852;2.35566;BJ;385755
BJ-Abomey;Abomey;7.18286;1.99119;BJ;82154
BL-Gustavia;Gustavia;17.89618;-62.84978;BL;5988
BM-Hamilton;Hamilton;32.2949;-64.78303;BM;902
BN-Tutong;Tutong;4.80278;114.64917;BN;19151
BN-Seria;Seria;4.60637;114.32476;BN;30097
BN-Kuala_Belait;Kuala Belait;4.58361;114.2312;BN;31178
BN-Bandar_Seri_Begawan;Bandar Seri Begawan;4.89035;114.94006;BN;64409
BO-Yacuiba;Yacuiba;-22.01643;-63.67753;BO;82803
BO-Warnes;Warnes;-17.5163;-63.16778;BO;22036
BO-Villazón;Villazón;-22.08659;-65.59422;BO;30253
BO-Villa_Yapacaní;Villa Yapacaní;-17.4;-63.83333;BO;18187
BO-Villamontes;Villamontes;-21.26235;-63.46903;BO;18761
BO-Tupiza;Tupiza;-21.44345;-65.71875;BO;22233
BO-Trinidad;Trinidad;-14.83333;-64.9;BO;84259
BO-Tiquipaya;Tiquipaya;-17.33801;-66.21579;BO;53904
BO-Tarija;Tarija;-21.53549;-64.72956;BO;159269
BO-Sucre;Sucre;-19.03332;-65.26274;BO;224838
BO-Santiago_del_Torno;Santiago del Torno;-17.98674;-63.38118;BO;15543
BO-Santa_Cruz_de_la_Sierra;Santa Cruz de la Sierra;-17.78629;-63.18117;BO;1364389
BO-San_Ignacio_de_Velasco;San Ignacio de Velasco;-16.36667;-60.95;BO;23569
BO-San_Borja;San Borja;-14.81667;-66.85;BO;19640
BO-Sacaba;Sacaba;-17.39799;-66.03825;BO;107628
BO-Riberalta;Riberalta;-11.00654;-66.06312;BO;74014
BO-Quillacollo;Quillacollo;-17.39228;-66.27838;BO;87309
BO-Punata;Punata;-17.54234;-65.83472;BO;15194
BO-Potosí;Potosí;-19.58361;-65.75306;BO;141251
BO-Oruro;Oruro;-17.98333;-67.15;BO;208684
BO-Montero;Montero;-17.33866;-63.2505;BO;88616
BO-Mizque;Mizque;-17.94101;-65.34016;BO;30481
BO-Llallagua;Llallagua;-18.42426;-66.58388;BO;28069
BO-La_Paz;La Paz;-16.5;-68.15;BO;812799
BO-Huanuni;Huanuni;-18.289;-66.83583;BO;15492
BO-Guayaramerín;Guayaramerín;-10.8258;-65.3581;BO;36008
BO-Cotoca;Cotoca;-17.81667;-63.05;BO;18347
BO-Cochabamba;Cochabamba;-17.3895;-66.1568;BO;900414
BO-Cobija;Cobija;-11.02671;-68.76918;BO;26585
BO-Camiri;Camiri;-20.03849;-63.51833;BO;27961
BO-Bermejo;Bermejo;-22.73206;-64.33724;BO;35411
BO-Ascención_de_Guarayos;Ascención de Guarayos;-15.89299;-63.18855;BO;18816
BO-San_Borja;San Borja;-14.85195;-66.74954;BO;24610
BQ-Kralendijk;Kralendijk;12.15;-68.26667;BQ;3081
BR-Vitória_do_Mearim;Vitória do Mearim;-3.46222;-44.87056;BR;15775
BR-Vitória_de_Santo_Antão;Vitória de Santo Antão;-8.11806;-35.29139;BR;107383
BR-Viseu;Viseu;-1.19667;-46.14;BR;18958
BR-Conde;Conde;-7.25972;-34.9075;BR;15859
BR-Vigia;Vigia;-0.85833;-48.14167;BR;29229
BR-Viçosa_do_Ceará;Viçosa do Ceará;-3.56222;-41.09222;BR;16636
BR-Viçosa;Viçosa;-9.37139;-36.24083;BR;19573
BR-Viana;Viana;-3.22028;-45.00361;BR;26689
BR-Várzea_Alegre;Várzea Alegre;-5.35;-40.38333;BR;21841
BR-Varjota;Varjota;-4.19444;-40.47667;BR;16462
BR-Vargem_Grande;Vargem Grande;-3.54306;-43.91583;BR;21419
BR-Valença_do_Piauí;Valença do Piauí;-6.4075;-41.74556;BR;15881
BR-União_dos_Palmares;União dos Palmares;-9.16278;-36.03194;BR;41178
BR-União;União;-4.58583;-42.86417;BR;15677
BR-Tuntum;Tuntum;-5.25806;-44.64889;BR;16402
BR-Tucuruí;Tucuruí;-3.76585;-49.67923;BR;76337
BR-Tucumã;Tucumã;-0.18333;-50.05;BR;15030
BR-Trindade;Trindade;-7.76194;-40.26778;BR;19313
BR-Trairi;Trairi;-3.27778;-39.26889;BR;23126
BR-Toritama;Toritama;-8.00667;-36.05667;BR;23940
BR-Tomé_Açu;Tomé Açu;-2.41889;-48.15222;BR;34053
BR-Timon;Timon;-5.09417;-42.83667;BR;124427
BR-Timbiras;Timbiras;-4.25528;-43.94056;BR;17875
BR-Timbaúba;Timbaúba;-7.50528;-35.31833;BR;45121
BR-Tianguá;Tianguá;-3.73222;-40.99167;BR;45696
BR-Teresina;Teresina;-5.08917;-42.80194;BR;744512
BR-São_João_dos_Inhamuns;São João dos Inhamuns;-6;-40.28333;BR;29188
BR-Tamandaré;Tamandaré;-8.75632;-35.09995;BR;17954
BR-Tabira;Tabira;-7.59083;-37.53944;BR;16926
BR-Surubim;Surubim;-7.83306;-35.75472;BR;34580
BR-Sousa;Sousa;-6.75917;-38.22806;BR;47927
BR-Soure;Soure;-0.71667;-48.52333;BR;18212
BR-Solânea;Solânea;-6.755;-35.54;BR;17030
BR-Sobral;Sobral;-3.68611;-40.34972;BR;157996
BR-Sirinhaém;Sirinhaém;-8.59083;-35.11611;BR;40852
BR-Sertânia;Sertânia;-8.07361;-37.26444;BR;18190
BR-Serra_Talhada;Serra Talhada;-7.99194;-38.29833;BR;51203
BR-Senador_Pompeu;Senador Pompeu;-5.58806;-39.37167;BR;16515
BR-Satuba;Satuba;-9.56333;-35.82444;BR;15887
BR-São_Raimundo_Nonato;São Raimundo Nonato;-9.01528;-42.69944;BR;19569
BR-São_Miguel_dos_Campos;São Miguel dos Campos;-9.78111;-36.09361;BR;40890
BR-São_Miguel_do_Guamá;São Miguel do Guamá;-1.62667;-47.48333;BR;28265
BR-São_Mateus_do_Maranhão;São Mateus do Maranhão;-4.04167;-44.475;BR;28233
BR-São_Luís_do_Quitunde;São Luís do Quitunde;-9.31833;-35.56111;BR;20563
BR-São_Luís;São Luís;-2.52972;-44.30278;BR;917237
BR-São_Lourenço_da_Mata;São Lourenço da Mata;-8.00222;-35.01833;BR;88416
BR-São_José_do_Egito;São José do Egito;-7.47889;-37.27444;BR;18218
BR-São_José_de_Ribamar;São José de Ribamar;-2.56194;-44.05417;BR;27777
BR-São_José_de_Mipibu;São José de Mipibu;-6.07472;-35.23778;BR;15298
BR-São_João_dos_Patos;São João dos Patos;-6.495;-43.70222;BR;19538
BR-São_Gonçalo_do_Amarante;São Gonçalo do Amarante;-3.60722;-38.96833;BR;23583
BR-São_Félix_do_Xingu;São Félix do Xingu;-6.64472;-51.995;BR;16477
BR-São_Domingos_do_Maranhão;São Domingos do Maranhão;-5.57583;-44.38528;BR;18275
BR-São_Bento;São Bento;-6.28333;-37.75;BR;24749
BR-São_Bento;São Bento;-2.69583;-44.82139;BR;17245
BR-Santa_Rita;Santa Rita;-7.11389;-34.97806;BR;119893
BR-Santarém;Santarém;-2.44306;-54.70833;BR;189047
BR-Santa_Quitéria_do_Maranhão;Santa Quitéria do Maranhão;-3.51556;-42.54667;BR;17174
BR-Santa_Quitéria;Santa Quitéria;-4.33194;-40.15667;BR;24391
BR-Santana_do_Ipanema;Santana do Ipanema;-9.37833;-37.24528;BR;26146
BR-Santa_Luzia;Santa Luzia;-7.64265;-47.21738;BR;22909
BR-Santa_Inês;Santa Inês;-3.66667;-45.38;BR;67424
BR-Santa_Helena;Santa Helena;-2.23111;-45.3;BR;16045
BR-Santa_Cruz_do_Capibaribe;Santa Cruz do Capibaribe;-7.9575;-36.20472;BR;76450
BR-Santa_Cruz;Santa Cruz;-6.22944;-36.02278;BR;27775
BR-Salinópolis;Salinópolis;-0.61361;-47.35611;BR;40998
BR-Salgueiro;Salgueiro;-8.07417;-39.11917;BR;42152
BR-Russas;Russas;-4.94028;-37.97583;BR;39465
BR-Rio_Largo;Rio Largo;-9.47833;-35.85333;BR;63387
BR-Rio_Formoso;Rio Formoso;-8.66877;-35.16277;BR;15518
BR-Ribeirão;Ribeirão;-8.51444;-35.37778;BR;29818
BR-Recife;Recife;-8.05389;-34.88111;BR;1478098
BR-Quixeramobim;Quixeramobim;-5.19917;-39.29278;BR;34321
BR-Quixadá;Quixadá;-4.97139;-39.01528;BR;49328
BR-Presidente_Dutra;Presidente Dutra;-5.29;-44.49;BR;30330
BR-Santana;Santana;-0.05833;-51.18167;BR;83927
BR-Porto_Calvo;Porto Calvo;-9.045;-35.39833;BR;17346
BR-Portel;Portel;-1.93556;-50.82111;BR;21315
BR-Pombos;Pombos;-8.14139;-35.39583;BR;15894
BR-Pombal;Pombal;-6.77028;-37.80167;BR;21751
BR-Piripiri;Piripiri;-4.27333;-41.77694;BR;44864
BR-Piracuruca;Piracuruca;-3.92806;-41.70917;BR;18852
BR-Pinheiro;Pinheiro;-2.52139;-45.0825;BR;38893
BR-Pindaré_Mirim;Pindaré Mirim;-3.60833;-45.34333;BR;22933
BR-Pilar;Pilar;-9.59722;-35.95667;BR;30617
BR-Picos;Picos;-7.07694;-41.46694;BR;57495
BR-Petrolina;Petrolina;-9.39861;-40.50083;BR;194650
BR-Jatobá;Jatobá;-9.18306;-38.26889;BR;20575
BR-Pesqueira;Pesqueira;-8.35778;-36.69639;BR;41896
BR-Pentecoste;Pentecoste;-3.79278;-39.27028;BR;19680
BR-Penalva;Penalva;-3.29417;-45.17361;BR;17186
BR-Pedro_II;Pedro II;-4.42472;-41.45861;BR;22038
BR-Pedra_Branca;Pedra Branca;-5.45417;-39.71722;BR;20072
BR-Paulo_Afonso;Paulo Afonso;-9.40611;-38.21472;BR;85350
BR-Paulista;Paulista;-7.94083;-34.87306;BR;289971
BR-Patos;Patos;-7.02444;-37.28;BR;92575
BR-Parnamirim;Parnamirim;-5.91556;-35.26278;BR;150343
BR-Parnaíba;Parnaíba;-2.90472;-41.77667;BR;138008
BR-Parintins;Parintins;-2.62833;-56.73583;BR;64428
BR-Parelhas;Parelhas;-6.68778;-36.6575;BR;16377
BR-Paraipaba;Paraipaba;-3.43944;-39.14833;BR;18423
BR-Paragominas;Paragominas;-2.96667;-47.48333;BR;69613
BR-Paracuru;Paracuru;-3.41;-39.03056;BR;21196
BR-Palmares;Palmares;-8.68333;-35.59167;BR;41679
BR-Pacatuba;Pacatuba;-3.98417;-38.62028;BR;55291
BR-Pacajus;Pacajus;-4.1725;-38.46056;BR;41558
BR-Ouricuri;Ouricuri;-7.8825;-40.08167;BR;29317
BR-Orós;Orós;-6.24444;-38.91361;BR;16328
BR-Oriximiná;Oriximiná;-1.76556;-55.86611;BR;35581
BR-Olinda;Olinda;-8.00889;-34.85528;BR;366754
BR-Oeiras;Oeiras;-7.02528;-42.13111;BR;21071
BR-Óbidos;Óbidos;-1.9175;-55.51806;BR;24970
BR-Nova_Russas;Nova Russas;-4.70667;-40.56306;BR;21986
BR-Nova_Cruz;Nova Cruz;-6.47806;-35.43389;BR;23166
BR-Nazaré_da_Mata;Nazaré da Mata;-7.74167;-35.22778;BR;26485
BR-Natal;Natal;-5.795;-35.20944;BR;763043
BR-Murici;Murici;-9.30667;-35.94333;BR;20419
BR-Moreno;Moreno;-8.11861;-35.09222;BR;45237
BR-Morada_Nova;Morada Nova;-5.10667;-38.3725;BR;37389
BR-Monteiro;Monteiro;-7.88944;-37.12;BR;17726
BR-Monte_Alegre;Monte Alegre;-2.00082;-54.08102;BR;22840
BR-Mombaça;Mombaça;-5.74306;-39.6275;BR;17065
BR-Moju;Moju;-1.88389;-48.76889;BR;21510
BR-Mossoró;Mossoró;-5.1875;-37.34417;BR;202005
BR-Mocajuba;Mocajuba;-2.58417;-49.50722;BR;16567
BR-Miracema_do_Tocantins;Miracema do Tocantins;-9.56722;-48.39167;BR;19634
BR-Maués;Maués;-3.38361;-57.71861;BR;22475
BR-Matriz_de_Camaragibe;Matriz de Camaragibe;-9.15167;-35.53333;BR;18705
BR-Mari;Mari;-7.06;-35.31944;BR;17535
BR-Marechal_Deodoro;Marechal Deodoro;-9.71028;-35.895;BR;50571
BR-Maragogi;Maragogi;-9.01222;-35.2225;BR;16066
BR-Maracanaú;Maracanaú;-3.87667;-38.62556;BR;193529
BR-Marabá;Marabá;-5.38146;-49.13232;BR;145860
BR-Mamanguape;Mamanguape;-6.83861;-35.12611;BR;27606
BR-Maceió;Maceió;-9.66583;-35.73528;BR;954991
BR-Macau;Macau;-5.115;-36.63444;BR;18070
BR-Macapá;Macapá;0.03889;-51.06639;BR;338936
BR-Macaíba;Macaíba;-5.85833;-35.35389;BR;40015
BR-Limoeiro_do_Norte;Limoeiro do Norte;-5.14556;-38.09806;BR;29449
BR-Limoeiro;Limoeiro;-7.87472;-35.45028;BR;42328
BR-Lavras_da_Mangabeira;Lavras da Mangabeira;-6.75333;-38.96444;BR;17221
BR-Lajedo;Lajedo;-8.66361;-36.32;BR;25261
BR-Lago_da_Pedra;Lago da Pedra;-4.28674;-45.23824;BR;25996
BR-Lagoa_do_Itaenga;Lagoa do Itaenga;-7.93611;-35.29028;BR;17719
BR-Juazeiro_do_Norte;Juazeiro do Norte;-7.21306;-39.31528;BR;225230
BR-José_de_Freitas;José de Freitas;-4.75639;-42.57556;BR;21432
BR-João_Pessoa;João Pessoa;-7.115;-34.86306;BR;650883
BR-João_Câmara;João Câmara;-5.5375;-35.81972;BR;19885
BR-Jaguaruana;Jaguaruana;-4.83389;-37.78111;BR;21790
BR-Jaguaribe;Jaguaribe;-5.89056;-38.62194;BR;23065
BR-Jaboatão;Jaboatão;-8.18028;-35.00139;BR;702621
BR-Itupiranga;Itupiranga;-5.13472;-49.32667;BR;21301
BR-Itacoatiara;Itacoatiara;-3.14306;-58.44417;BR;64937
BR-Itaporanga;Itaporanga;-7.30444;-38.15028;BR;15890
BR-Itapissuma;Itapissuma;-7.77639;-34.89222;BR;16673
BR-Itapipoca;Itapipoca;-3.49444;-39.57861;BR;55784
BR-Itapecuru_Mirim;Itapecuru Mirim;-3.3925;-44.35861;BR;34943
BR-Itapagé;Itapagé;-3.68667;-39.58611;BR;32043
BR-Itaituba;Itaituba;-4.27611;-55.98361;BR;64756
BR-Itaitinga;Itaitinga;-3.96944;-38.52806;BR;30938
BR-Itabaiana;Itabaiana;-7.32861;-35.3325;BR;19100
BR-Ipueiras;Ipueiras;-7.03333;-40.45;BR;17111
BR-Ipubi;Ipubi;-7.65194;-40.14889;BR;16424
BR-Ipu;Ipu;-4.32222;-40.71083;BR;26678
BR-Ipojuca;Ipojuca;-8.39889;-35.06389;BR;53364
BR-Imperatriz;Imperatriz;-5.52639;-47.49167;BR;218106
BR-Iguatu;Iguatu;-6.35944;-39.29861;BR;70380
BR-Igarapé_Miri;Igarapé Miri;-1.975;-48.95972;BR;26837
BR-Igarapé_Açu;Igarapé Açu;-1.12889;-47.62;BR;24136
BR-Igarassu;Igarassu;-7.83417;-34.90639;BR;86457
BR-Icó;Icó;-6.40111;-38.86222;BR;28323
BR-Horizonte;Horizonte;-4.1;-38.48333;BR;51171
BR-Guaraciaba_do_Norte;Guaraciaba do Norte;-4.16694;-40.7475;BR;18186
BR-Guarabira;Guarabira;-6.85472;-35.49;BR;43749
BR-Guaiúba;Guaiúba;-4.03972;-38.63722;BR;21820
BR-Gravatá;Gravatá;-8.20111;-35.56472;BR;61249
BR-Granja;Granja;-3.12028;-40.82611;BR;25879
BR-Grajaú;Grajaú;-5.81944;-46.13861;BR;30217
BR-Goiana;Goiana;-7.56056;-35.0025;BR;43980
BR-Glória_do_Goitá;Glória do Goitá;-8.00167;-35.29278;BR;17374
BR-Garanhuns;Garanhuns;-8.88202;-36.50216;BR;110085
BR-Gameleira;Gameleira;-8.58444;-35.38667;BR;19423
BR-Fortaleza;Fortaleza;-3.71722;-38.54306;BR;2400000
BR-Floriano;Floriano;-6.76694;-43.0225;BR;48587
BR-Floresta;Floresta;-8.60111;-38.56861;BR;18100
BR-Eusébio;Eusébio;-3.89;-38.45056;BR;37289
BR-Extremoz;Extremoz;-5.70556;-35.30722;BR;17991
BR-Estreito;Estreito;-5.78333;-43.25;BR;17647
BR-Esperantina;Esperantina;-3.90167;-42.23361;BR;21044
BR-Esperança;Esperança;-7.03306;-35.85722;BR;18817
BR-Escada;Escada;-8.35917;-35.22361;BR;48083
BR-Dom_Pedro;Dom Pedro;-5.03749;-44.43857;BR;15570
BR-Demerval_Lobão;Demerval Lobão;-5.35833;-42.67639;BR;15265
BR-Delmiro_Gouveia;Delmiro Gouveia;-9.38861;-37.99917;BR;35259
BR-Custódia;Custódia;-8.0875;-37.64306;BR;18107
BR-Cururupu;Cururupu;-1.82833;-44.86833;BR;22007
BR-Currais_Novos;Currais Novos;-6.26083;-36.51778;BR;35560
BR-Cupira;Cupira;-8.61667;-35.95;BR;19096
BR-Crato;Crato;-7.23417;-39.40944;BR;88786
BR-Crateús;Crateús;-5.17833;-40.6775;BR;52933
BR-Coroatá;Coroatá;-4.13;-44.12417;BR;34129
BR-Condado;Condado;-7.58583;-35.10583;BR;19585
BR-Conceição_do_Araguaia;Conceição do Araguaia;-8.26441;-49.26982;BR;27115
BR-Colinas;Colinas;-6.02583;-44.24917;BR;25158
BR-Coelho_Neto;Coelho Neto;-4.25667;-43.01278;BR;36184
BR-Codó;Codó;-4.45528;-43.88556;BR;83288
BR-Chapadinha;Chapadinha;-3.74167;-43.36028;BR;40804
BR-Chã_Grande;Chã Grande;-8.23833;-35.46167;BR;17112
BR-Ceará_Mirim;Ceará Mirim;-5.63444;-35.42556;BR;32667
BR-Caxias;Caxias;-4.85889;-43.35611;BR;148072
BR-Caucaia;Caucaia;-3.73611;-38.65306;BR;275019
BR-Catolé_do_Rocha;Catolé do Rocha;-6.34389;-37.74667;BR;19812
BR-Catende;Catende;-8.66667;-35.71667;BR;23322
BR-Castanhal;Castanhal;-1.29389;-47.92639;BR;137406
BR-Cascavel;Cascavel;-4.13306;-38.24194;BR;52357
BR-Caruaru;Caruaru;-8.28333;-35.97611;BR;235371
BR-Carpina;Carpina;-7.85083;-35.25472;BR;70689
BR-Carolina;Carolina;-7.33561;-47.46218;BR;16228
BR-Capitão_Poço;Capitão Poço;-1.74639;-47.05944;BR;32704
BR-Capanema;Capanema;-1.19583;-47.18083;BR;47766
BR-Canindé;Canindé;-4.35889;-39.31167;BR;42720
BR-Canguaretama;Canguaretama;-6.38;-35.12889;BR;18873
BR-Campos_Sales;Campos Sales;-7.07444;-40.37611;BR;17648
BR-Campo_Maior;Campo Maior;-4.82778;-42.16861;BR;31739
BR-Campo_Alegre;Campo Alegre;-9.78194;-36.35083;BR;16785
BR-Campina_Grande;Campina Grande;-7.23056;-35.88111;BR;348936
BR-Camocim;Camocim;-2.90222;-40.84111;BR;44481
BR-Cametá;Cametá;-2.24444;-49.49583;BR;45200
BR-Cajueiro;Cajueiro;-9.71667;-36.45;BR;15062
BR-Cajazeiras;Cajazeiras;-6.89028;-38.55528;BR;43913
BR-Caicó;Caicó;-6.45833;-37.09778;BR;54934
BR-Cabrobó;Cabrobó;-8.51417;-39.31;BR;16096
BR-Cabo;Cabo;-8.28333;-35.03333;BR;143105
BR-Cabedelo;Cabedelo;-6.98111;-34.83389;BR;54839
BR-Buriti_Bravo;Buriti Bravo;-5.83722;-43.83361;BR;17692
BR-Buíque;Buíque;-8.62306;-37.15583;BR;20324
BR-Breves;Breves;-1.68222;-50.48028;BR;46473
BR-Brejo_Santo;Brejo Santo;-7.49333;-38.98722;BR;27384
BR-Brejo_da_Madre_de_Deus;Brejo da Madre de Deus;-8.14583;-36.37111;BR;27369
BR-Bragança;Bragança;-1.05361;-46.76556;BR;57163
BR-Bom_Conselho;Bom Conselho;-9.16972;-36.67972;BR;27800
BR-Boa_Viagem;Boa Viagem;-5.1275;-39.73222;BR;24671
BR-Bezerros;Bezerros;-8.23333;-35.79694;BR;51436
BR-Benevides;Benevides;-1.36139;-48.24472;BR;49794
BR-Belo_Jardim;Belo Jardim;-8.33556;-36.42417;BR;49922
BR-Belém;Belém;-6.69167;-35.53333;BR;15550
BR-Belém;Belém;-1.45583;-48.50444;BR;1407737
BR-Beberibe;Beberibe;-4.17972;-38.13056;BR;37025
BR-Bayeux;Bayeux;-7.125;-34.93222;BR;91056
BR-Baturité;Baturité;-4.32861;-38.88472;BR;22417
BR-Barreiros;Barreiros;-8.81833;-35.18639;BR;35565
BR-Barreirinhas;Barreirinhas;-2.75556;-42.82591;BR;17437
BR-Barras;Barras;-4.24444;-42.29444;BR;21597
BR-Barra_do_Corda;Barra do Corda;-5.50556;-45.24333;BR;86662
BR-Barcarena;Barcarena;-1.50583;-48.62583;BR;29871
BR-Barbalha;Barbalha;-7.31111;-39.30417;BR;33943
BR-Balsas;Balsas;-7.5325;-46.03556;BR;68056
BR-Bacabal;Bacabal;-4.29167;-44.79167;BR;72372
BR-Augusto_Corrêa;Augusto Corrêa;-1.02167;-46.635;BR;16279
BR-Atalaia;Atalaia;-9.50194;-36.02278;BR;18908
BR-Areia_Branca;Areia Branca;-4.95611;-37.13694;BR;18372
BR-Arcoverde;Arcoverde;-8.41889;-37.05389;BR;57163
BR-Araripina;Araripina;-7.57611;-40.49833;BR;38569
BR-Arari;Arari;-3.45361;-44.78;BR;16777
BR-Arapiraca;Arapiraca;-9.7525;-36.66111;BR;166562
BR-Araguaína;Araguaína;-7.19111;-48.20722;BR;105019
BR-Aracati;Aracati;-4.56167;-37.76972;BR;44293
BR-Aquiraz;Aquiraz;-3.90139;-38.39111;BR;65116
BR-Apodi;Apodi;-5.66417;-37.79889;BR;16757
BR-Ananindeua;Ananindeua;-1.36556;-48.37222;BR;433956
BR-Amaraji;Amaraji;-8.38306;-35.4525;BR;16660
BR-Altos;Altos;-5.03806;-42.46;BR;28768
BR-Altamira;Altamira;-3.20333;-52.20639;BR;70888
BR-Almeirim;Almeirim;-1.52333;-52.58167;BR;20464
BR-Alenquer;Alenquer;-1.94167;-54.73833;BR;26290
BR-Alagoa_Grande;Alagoa Grande;-7.15833;-35.63;BR;16406
BR-Águas_Belas;Águas Belas;-9.11139;-37.12306;BR;22563
BR-Água_Preta;Água Preta;-8.7075;-35.53056;BR;16444
BR-Afogados_da_Ingazeira;Afogados da Ingazeira;-7.75083;-37.63917;BR;25060
BR-Açu;Açu;-5.57667;-36.90861;BR;36125
BR-Acopiara;Acopiara;-6.09528;-39.4525;BR;24561
BR-Acaraú;Acaraú;-2.88556;-40.12;BR;28389
BR-Abreu_e_Lima;Abreu e Lima;-7.91167;-34.90278;BR;81959
BR-Abaetetuba;Abaetetuba;-1.71806;-48.8825;BR;78050
BR-Xique_Xique;Xique Xique;-10.82294;-42.72815;BR;35433
BR-Xanxerê;Xanxerê;-26.87694;-52.40417;BR;32957
BR-Votuporanga;Votuporanga;-20.42278;-49.97278;BR;69863
BR-Votorantim;Votorantim;-23.54667;-47.43778;BR;99390
BR-Volta_Redonda;Volta Redonda;-22.52306;-44.10417;BR;249580
BR-Vitória_da_Conquista;Vitória da Conquista;-14.86611;-40.83944;BR;253137
BR-Vitória;Vitória;-20.31944;-40.33778;BR;312656
BR-Visconde_do_Rio_Branco;Visconde do Rio Branco;-21.01028;-42.84056;BR;29009
BR-Viradouro;Viradouro;-20.87306;-48.29694;BR;17172
BR-Vinhedo;Vinhedo;-23.02972;-46.97528;BR;56492
BR-Vila_Velha;Vila Velha;-20.32972;-40.2925;BR;394930
BR-Videira;Videira;-27.00833;-51.15167;BR;42440
BR-Viçosa;Viçosa;-20.75389;-42.88194;BR;68680
BR-Viana;Viana;-20.39028;-40.49611;BR;55122
BR-Viamão;Viamão;-30.08111;-51.02333;BR;285269
BR-Vespasiano;Vespasiano;-19.69194;-43.92333;BR;94749
BR-Veranópolis;Veranópolis;-28.93611;-51.54944;BR;19861
BR-Vera_Cruz;Vera Cruz;-12.63333;-41.03333;BR;30556
BR-Wenceslau_Braz;Wenceslau Braz;-23.87389;-49.80278;BR;15726
BR-Venâncio_Aires;Venâncio Aires;-29.60639;-52.19194;BR;40627
BR-Vazante;Vazante;-17.98694;-46.90778;BR;15459
BR-Vassouras;Vassouras;-22.40389;-43.6625;BR;21174
BR-Várzea_Paulista;Várzea Paulista;-23.21139;-46.82833;BR;110936
BR-Várzea_Grande;Várzea Grande;-15.64667;-56.1325;BR;249752
BR-Várzea_da_Palma;Várzea da Palma;-17.5976;-44.73367;BR;28706
BR-Varginha;Varginha;-21.55139;-45.43028;BR;116571
BR-Vargem_Grande_do_Sul;Vargem Grande do Sul;-21.83222;-46.89361;BR;36213
BR-Valparaíso;Valparaíso;-21.22778;-50.86833;BR;15938
BR-Valinhos;Valinhos;-22.97056;-46.99583;BR;88630
BR-Valença;Valença;-22.24556;-43.70028;BR;61144
BR-Valença;Valença;-13.37028;-39.07306;BR;63231
BR-Vacaria;Vacaria;-28.51222;-50.93389;BR;56765
BR-Uruguaiana;Uruguaiana;-29.75472;-57.08833;BR;123480
BR-Uruçuca;Uruçuca;-14.59306;-39.28444;BR;24409
BR-Uruaçu;Uruaçu;-14.52472;-49.14083;BR;30088
BR-União_da_Vitória;União da Vitória;-26.23;-51.08639;BR;48741
BR-Unaí;Unaí;-16.3575;-46.90611;BR;60202
BR-Una;Una;-15.29333;-39.07528;BR;22613
BR-Umuarama;Umuarama;-23.76639;-53.325;BR;107319
BR-Uberlândia;Uberlândia;-18.91861;-48.27722;BR;563536
BR-Uberaba;Uberaba;-19.74833;-47.93194;BR;260843
BR-Ubatuba;Ubatuba;-23.43389;-45.07111;BR;79007
BR-Ubatã;Ubatã;-14.20906;-39.52641;BR;15604
BR-Ubaitaba;Ubaitaba;-14.3125;-39.32333;BR;28375
BR-Ubá;Ubá;-21.12;-42.94278;BR;97828
BR-Tupanciretã;Tupanciretã;-29.08056;-53.83583;BR;17488
BR-Tupaciguara;Tupaciguara;-18.59222;-48.705;BR;24398
BR-Tupã;Tupã;-21.93472;-50.51361;BR;62035
BR-Tucano;Tucano;-10.95817;-38.79084;BR;31203
BR-Tubarão;Tubarão;-28.46667;-49.00694;BR;67245
BR-Trindade;Trindade;-16.64944;-49.48889;BR;97521
BR-Três_Rios;Três Rios;-22.11667;-43.20917;BR;71944
BR-Três_Pontas;Três Pontas;-21.36667;-45.5125;BR;43749
BR-Três_Passos;Três Passos;-27.45556;-53.93194;BR;17286
BR-Três_Lagoas;Três Lagoas;-20.78765;-51.70338;BR;78712
BR-Três_de_Maio;Três de Maio;-27.77333;-54.24;BR;18278
BR-Três_Coroas;Três Coroas;-29.51694;-50.77778;BR;21051
BR-Três_Corações;Três Corações;-21.69694;-45.25333;BR;63457
BR-Tremembé;Tremembé;-22.95833;-45.54944;BR;31719
BR-Tramandaí;Tramandaí;-29.98472;-50.13361;BR;34734
BR-Torres;Torres;-29.33528;-49.72694;BR;32791
BR-Toledo;Toledo;-24.71361;-53.74306;BR;119313
BR-Tobias_Barreto;Tobias Barreto;-11.18389;-37.99833;BR;29740
BR-Timóteo;Timóteo;-19.58106;-42.64953;BR;91722
BR-Timbó;Timbó;-26.82333;-49.27167;BR;33765
BR-Tijucas;Tijucas;-27.24139;-48.63361;BR;22481
BR-Tietê;Tietê;-23.10194;-47.71472;BR;32061
BR-Teutônia;Teutônia;-29.44806;-51.80639;BR;21834
BR-Teresópolis;Teresópolis;-22.4167;-42.97822;BR;123979
BR-Teófilo_Otoni;Teófilo Otoni;-17.8575;-41.50528;BR;101170
BR-Teodoro_Sampaio;Teodoro Sampaio;-22.5325;-52.1675;BR;15193
BR-Telêmaco_Borba;Telêmaco Borba;-24.32389;-50.61556;BR;58880
BR-Taubaté;Taubaté;-23.02639;-45.55528;BR;251641
BR-Tatuí;Tatuí;-23.35556;-47.85694;BR;93580
BR-Taquarituba;Taquarituba;-23.53306;-49.24444;BR;21492
BR-Taquaritinga;Taquaritinga;-21.40611;-48.50472;BR;50098
BR-Taquari;Taquari;-29.79972;-51.86444;BR;27107
BR-Taquara;Taquara;-29.65056;-50.78056;BR;48051
BR-Tapiramutá;Tapiramutá;-11.84722;-40.79139;BR;16544
BR-Tapes;Tapes;-30.67333;-51.39583;BR;18570
BR-Tanguá;Tanguá;-22.73028;-42.71417;BR;23740
BR-Tanabi;Tanabi;-20.62639;-49.64917;BR;18227
BR-Tambaú;Tambaú;-21.705;-47.27444;BR;19956
BR-Taiobeiras;Taiobeiras;-15.80778;-42.23306;BR;24351
BR-Taboão_da_Serra;Taboão da Serra;-23.62611;-46.79167;BR;214523
BR-Suzano;Suzano;-23.5425;-46.31083;BR;283314
BR-Sumaré;Sumaré;-22.82194;-47.26694;BR;227977
BR-Sorocaba;Sorocaba;-23.50167;-47.45806;BR;558862
BR-Soledade;Soledade;-28.81833;-52.51028;BR;24791
BR-Socorro;Socorro;-22.59139;-46.52889;BR;24272
BR-Sobradinho;Sobradinho;-12.83333;-39.1;BR;19304
BR-Simão_Dias;Simão Dias;-10.73833;-37.81111;BR;18385
BR-Silva_Jardim;Silva Jardim;-22.65083;-42.39167;BR;16888
BR-Sidrolândia;Sidrolândia;-20.93194;-54.96139;BR;16878
BR-Sete_Lagoas;Sete Lagoas;-19.46583;-44.24667;BR;201334
BR-Sertãozinho;Sertãozinho;-21.13778;-47.99028;BR;99211
BR-Serrinha;Serrinha;-11.66417;-39.0075;BR;49078
BR-Serra_Negra;Serra Negra;-22.61222;-46.70056;BR;22632
BR-Serrana;Serrana;-21.21139;-47.59556;BR;39826
BR-Serra;Serra;-20.12861;-40.30778;BR;394153
BR-Seropédica;Seropédica;-22.74389;-43.7075;BR;54846
BR-Senhor_do_Bonfim;Senhor do Bonfim;-10.46139;-40.18944;BR;48471
BR-Senador_Canedo;Senador Canedo;-16.70806;-49.09306;BR;61800
BR-Seabra;Seabra;-12.41713;-41.77049;BR;16764
BR-Schroeder;Schroeder;-26.4125;-49.07306;BR;15505
BR-Saubara;Saubara;-12.7375;-38.76861;BR;15662
BR-Sarzedo;Sarzedo;-20.03528;-44.14472;BR;20798
BR-Sarandi;Sarandi;-27.94389;-52.92306;BR;15158
BR-Sarandi;Sarandi;-23.44361;-51.87389;BR;84697
BR-Saquarema;Saquarema;-22.92;-42.51028;BR;62056
BR-Sapucaia;Sapucaia;-29.83333;-51.15;BR;130937
BR-Sapiranga;Sapiranga;-29.63806;-51.00694;BR;76051
BR-São_Vicente;São Vicente;-23.96306;-46.39194;BR;324457
BR-São_Sepé;São Sepé;-30.16056;-53.56528;BR;19181
BR-São_Sebastião_do_Passé;São Sebastião do Passé;-12.5125;-38.49528;BR;31049
BR-São_Sebastião_do_Paraíso;São Sebastião do Paraíso;-20.91694;-46.99139;BR;68654
BR-São_Sebastião_do_Caí;São Sebastião do Caí;-29.58667;-51.37556;BR;19012
BR-São_Sebastião;São Sebastião;-23.76;-45.40972;BR;76367
BR-São_Roque;São Roque;-23.52917;-47.13528;BR;50540
BR-São_Pedro_da_Aldeia;São Pedro da Aldeia;-22.83917;-42.10278;BR;55014
BR-São_Pedro;São Pedro;-22.54861;-47.91389;BR;27068
BR-São_Paulo;São Paulo;-23.5475;-46.63611;BR;10021295
BR-São_Miguel_do_Iguaçu;São Miguel do Iguaçu;-25.34806;-54.23778;BR;15434
BR-São_Miguel_do_Araguaia;São Miguel do Araguaia;-13.275;-50.16278;BR;18809
BR-São_Mateus_do_Sul;São Mateus do Sul;-25.87417;-50.38278;BR;24904
BR-São_Mateus;São Mateus;-18.72011;-39.85891;BR;77117
BR-São_Marcos;São Marcos;-28.97111;-51.06806;BR;18591
BR-São_Manuel;São Manuel;-22.73111;-48.57056;BR;33587
BR-São_Luiz_Gonzaga;São Luiz Gonzaga;-28.40833;-54.96083;BR;31798
BR-São_Luís_de_Montes_Belos;São Luís de Montes Belos;-16.525;-50.37222;BR;23619
BR-São_Lourenço_do_Sul;São Lourenço do Sul;-31.36528;-51.97833;BR;25340
BR-São_Lourenço;São Lourenço;-22.11639;-45.05444;BR;41143
BR-São_Leopoldo;São Leopoldo;-29.76028;-51.14722;BR;209229
BR-São_José_dos_Pinhais;São José dos Pinhais;-25.5302;-49.20836;BR;124224
BR-São_José_dos_Campos;São José dos Campos;-23.17944;-45.88694;BR;613764
BR-São_José_do_Rio_Preto;São José do Rio Preto;-20.81972;-49.37944;BR;374699
BR-São_José_do_Rio_Pardo;São José do Rio Pardo;-21.59556;-46.88861;BR;46989
BR-São_José;São José;-28.21171;-49.1632;BR;200000
BR-São_Joaquim_da_Barra;São Joaquim da Barra;-20.58139;-47.85472;BR;42720
BR-São_Joaquim;São Joaquim;-28.29389;-49.93167;BR;16250
BR-São_João_Nepomuceno;São João Nepomuceno;-21.54;-43.01056;BR;23154
BR-São_João_de_Meriti;São João de Meriti;-22.80389;-43.37222;BR;454849
BR-São_João_del_Rei;São João del Rei;-21.13556;-44.26167;BR;78592
BR-São_João_da_Boa_Vista;São João da Boa Vista;-21.96917;-46.79806;BR;76540
BR-São_João_da_Barra;São João da Barra;-21.64028;-41.05111;BR;20606
BR-São_Jerônimo;São Jerônimo;-29.95917;-51.72222;BR;17056
BR-São_Gotardo;São Gotardo;-19.31111;-46.04889;BR;34145
BR-São_Gonçalo_do_Sapucaí;São Gonçalo do Sapucaí;-21.89222;-45.59528;BR;19487
BR-São_Gabriel;São Gabriel;-30.33639;-54.32;BR;55434
BR-São_Francisco_do_Sul;São Francisco do Sul;-26.24333;-48.63806;BR;36224
BR-São_Francisco_do_Conde;São Francisco do Conde;-12.6275;-38.68;BR;24614
BR-São_Francisco;São Francisco;-15.94861;-44.86444;BR;33033
BR-São_Fidélis;São Fidélis;-21.64611;-41.74694;BR;27793
BR-São_Cristóvão;São Cristóvão;-11.01472;-37.20639;BR;71539
BR-São_Carlos;São Carlos;-22.0175;-47.89083;BR;205035
BR-São_Caetano_do_Sul;São Caetano do Sul;-23.62306;-46.55111;BR;136453
BR-São_Borja;São Borja;-28.66056;-56.00444;BR;59613
BR-São_Bernardo_do_Campo;São Bernardo do Campo;-23.69389;-46.565;BR;743372
BR-São_Bento_do_Sul;São Bento do Sul;-26.25028;-49.37861;BR;77597
BR-Santos_Dumont;Santos Dumont;-21.45667;-43.5525;BR;41582
BR-Santos;Santos;-23.96083;-46.33361;BR;411403
BR-Santo_Estêvão;Santo Estêvão;-12.43028;-39.25139;BR;27279
BR-Santo_Antônio_do_Monte;Santo Antônio do Monte;-20.08722;-45.29361;BR;22592
BR-Santo_Antônio_do_Amparo;Santo Antônio do Amparo;-20.94639;-44.91889;BR;16730
BR-Santo_Antônio_de_Posse;Santo Antônio de Posse;-22.60611;-46.91944;BR;18148
BR-Santo_Antônio_de_Pádua;Santo Antônio de Pádua;-21.53944;-42.18028;BR;33076
BR-Santo_Antônio_de_Jesus;Santo Antônio de Jesus;-12.96889;-39.26139;BR;73957
BR-Santo_Antônio_da_Platina;Santo Antônio da Platina;-23.295;-50.07722;BR;35260
BR-Santo_Ângelo;Santo Ângelo;-28.29917;-54.26306;BR;64606
BR-Santo_André;Santo André;-23.66389;-46.53833;BR;662373
BR-Santo_Anastácio;Santo Anastácio;-21.83833;-51.61028;BR;17233
BR-Santo_Amaro_da_Imperatriz;Santo Amaro da Imperatriz;-27.68806;-48.77861;BR;18418
BR-Santo_Amaro;Santo Amaro;-12.54667;-38.71194;BR;46748
BR-Santiago;Santiago;-29.19167;-54.86722;BR;46611
BR-Santa_Vitória_do_Palmar;Santa Vitória do Palmar;-33.51889;-53.36806;BR;27775
BR-Santa_Rosa_de_Viterbo;Santa Rosa de Viterbo;-21.47278;-47.36306;BR;21473
BR-Santa_Rosa;Santa Rosa;-27.87083;-54.48139;BR;58957
BR-Santa_Rita_do_Sapucaí;Santa Rita do Sapucaí;-22.25222;-45.70333;BR;28765
BR-Santa_Rita_do_Passa_Quatro;Santa Rita do Passa Quatro;-21.71028;-47.47806;BR;24578
BR-Santana_do_Paraíso;Santana do Paraíso;-19.36361;-42.56861;BR;25515
BR-Santana_do_Livramento;Santana do Livramento;-30.89083;-55.53278;BR;89694
BR-Santana_de_Parnaíba;Santana de Parnaíba;-23.44417;-46.91778;BR;98989
BR-Santa_Maria_da_Vitória;Santa Maria da Vitória;-13.38814;-44.19868;BR;23488
BR-Santa_Maria;Santa Maria;-29.68417;-53.80694;BR;249219
BR-Santa_Luzia;Santa Luzia;-19.76972;-43.85139;BR;243503
BR-Santaluz;Santaluz;-11.25583;-39.37472;BR;24739
BR-Santa_Isabel;Santa Isabel;-23.31556;-46.22139;BR;33709
BR-Santa_Helena_de_Goiás;Santa Helena de Goiás;-17.81361;-50.59694;BR;34254
BR-Santa_Gertrudes;Santa Gertrudes;-22.45667;-47.53028;BR;18490
BR-Santa_Fé_do_Sul;Santa Fé do Sul;-20.21111;-50.92583;BR;25802
BR-Santa_Cruz_do_Sul;Santa Cruz do Sul;-29.7175;-52.42583;BR;106113
BR-Santa_Cruz_do_Rio_Pardo;Santa Cruz do Rio Pardo;-22.89889;-49.6325;BR;37336
BR-Santa_Cruz_das_Palmeiras;Santa Cruz das Palmeiras;-21.82694;-47.24861;BR;25800
BR-Santa_Cruz_Cabrália;Santa Cruz Cabrália;-16.27806;-39.02472;BR;19545
BR-Santa_Cecília;Santa Cecília;-26.96083;-50.42694;BR;15092
BR-Santa_Bárbara_d'Oeste;Santa Bárbara d'Oeste;-22.75361;-47.41361;BR;188000
BR-Salvador;Salvador;-12.97111;-38.51083;BR;2711840
BR-Salto_de_Pirapora;Salto de Pirapora;-23.64889;-47.57333;BR;32227
BR-Salto;Salto;-23.20083;-47.28694;BR;98387
BR-Salinas;Salinas;-16.17028;-42.29028;BR;25746
BR-Sacramento;Sacramento;-19.86528;-47.44;BR;16982
BR-Ruy_Barbosa;Ruy Barbosa;-12.28389;-40.49389;BR;21093
BR-Rubiataba;Rubiataba;-15.16444;-49.80333;BR;16128
BR-Rosário_do_Sul;Rosário do Sul;-30.25833;-54.91417;BR;36721
BR-Rondonópolis;Rondonópolis;-16.47083;-54.63556;BR;152912
BR-Rolante;Rolante;-29.65056;-50.57583;BR;15594
BR-Rolândia;Rolândia;-23.30972;-51.36917;BR;51004
BR-Rio_Verde_de_Mato_Grosso;Rio Verde de Mato Grosso;-18.91806;-54.84417;BR;16613
BR-Rio_Verde;Rio Verde;-17.79806;-50.92806;BR;229651
BR-Rio_Real;Rio Real;-11.48472;-37.93278;BR;24005
BR-Rio_Pardo;Rio Pardo;-29.98972;-52.37806;BR;26998
BR-Rio_Negro;Rio Negro;-26.10583;-49.7975;BR;23006
BR-Rio_Negrinho;Rio Negrinho;-26.25444;-49.51833;BR;41914
BR-Rio_Grande_da_Serra;Rio Grande da Serra;-23.74417;-46.39833;BR;38161
BR-Rio_Grande;Rio Grande;-32.035;-52.09861;BR;187838
BR-Rio_do_Sul;Rio do Sul;-27.21417;-49.64306;BR;51944
BR-Rio_de_Janeiro;Rio de Janeiro;-22.90642;-43.18223;BR;6023699
BR-Rio_das_Pedras;Rio das Pedras;-22.84333;-47.60611;BR;23722
BR-Rio_das_Ostras;Rio das Ostras;-22.52694;-41.945;BR;100000
BR-Rio_Claro;Rio Claro;-22.41139;-47.56139;BR;180147
BR-Rio_Brilhante;Rio Brilhante;-21.80194;-54.54639;BR;18837
BR-Rio_Branco_do_Sul;Rio Branco do Sul;-25.19;-49.31417;BR;26441
BR-Rio_Bonito;Rio Bonito;-22.70861;-42.60972;BR;35997
BR-Ribeirão_Preto;Ribeirão Preto;-21.1775;-47.81028;BR;619746
BR-Ribeirão_Pires;Ribeirão Pires;-23.71056;-46.41333;BR;111888
BR-Ribeirão_das_Neves;Ribeirão das Neves;-19.76694;-44.08667;BR;406802
BR-Ribeirão_da_Ilha;Ribeirão da Ilha;-27.69934;-48.53219;BR;21000
BR-Ribeira_do_Pombal;Ribeira do Pombal;-10.83444;-38.53583;BR;28235
BR-Riachão_do_Jacuípe;Riachão do Jacuípe;-11.80694;-39.38556;BR;16911
BR-Resplendor;Resplendor;-19.32556;-41.25528;BR;15131
BR-Resende;Resende;-22.46889;-44.44667;BR;111514
BR-Registro;Registro;-24.4875;-47.84361;BR;45697
BR-Regente_Feijó;Regente Feijó;-22.22139;-51.30278;BR;17218
BR-Rancharia;Rancharia;-22.22917;-50.89306;BR;25530
BR-Quirinópolis;Quirinópolis;-18.44833;-50.45167;BR;32104
BR-Queimados;Queimados;-22.71611;-43.55528;BR;135741
BR-Quatro_Barras;Quatro Barras;-25.36556;-49.07694;BR;17526
BR-Quaraí;Quaraí;-30.3875;-56.45139;BR;23229
BR-Prudentópolis;Prudentópolis;-25.21306;-50.97778;BR;19611
BR-Propriá;Propriá;-10.21111;-36.84028;BR;23786
BR-Promissão;Promissão;-21.53667;-49.85806;BR;27031
BR-Presidente_Venceslau;Presidente Venceslau;-21.87611;-51.84389;BR;34026
BR-Presidente_Prudente;Presidente Prudente;-22.12556;-51.38889;BR;209502
BR-Presidente_Epitácio;Presidente Epitácio;-21.76333;-52.11556;BR;38742
BR-Prata;Prata;-19.30722;-48.92417;BR;19896
BR-Praia_Grande;Praia Grande;-24.00583;-46.40278;BR;250027
BR-Prado;Prado;-17.34111;-39.22083;BR;15464
BR-Pouso_Alegre;Pouso Alegre;-22.23;-45.93639;BR;115201
BR-Posse;Posse;-14.09306;-46.36944;BR;20003
BR-Porto_União;Porto União;-26.23806;-51.07833;BR;28907
BR-Porto_Seguro;Porto Seguro;-16.44972;-39.06472;BR;123173
BR-Porto_Ferreira;Porto Ferreira;-21.85389;-47.47917;BR;49127
BR-Porto_Feliz;Porto Feliz;-23.21472;-47.52389;BR;41015
BR-Porto_Alegre;Porto Alegre;-30.03283;-51.23019;BR;1372741
BR-Portão;Portão;-29.70167;-51.24194;BR;21051
BR-Porangatu;Porangatu;-13.44083;-49.14861;BR;32758
BR-Pontes_e_Lacerda;Pontes e Lacerda;-15.22611;-59.33528;BR;29381
BR-Ponte_Nova;Ponte Nova;-20.41639;-42.90861;BR;48187
BR-Ponta_Porã;Ponta Porã;-22.53611;-55.72556;BR;55763
BR-Pontal;Pontal;-21.0225;-48.03722;BR;32566
BR-Ponta_Grossa;Ponta Grossa;-25.095;-50.16194;BR;292177
BR-Pompéu;Pompéu;-19.22444;-44.93528;BR;25277
BR-Pompéia;Pompéia;-22.10861;-50.17167;BR;18015
BR-Pomerode;Pomerode;-26.74056;-49.17694;BR;21898
BR-Poços_de_Caldas;Poços de Caldas;-21.78778;-46.56139;BR;146588
BR-Poconé;Poconé;-16.25667;-56.62278;BR;21484
BR-Poções;Poções;-14.52972;-40.36528;BR;35254
BR-Poá;Poá;-23.52806;-46.34472;BR;107432
BR-Planaltina;Planaltina;-15.45278;-47.61417;BR;88853
BR-Piúma;Piúma;-20.83778;-40.72194;BR;17634
BR-Piuí;Piuí;-20.46528;-45.95806;BR;27327
BR-Pitangui;Pitangui;-19.68278;-44.89028;BR;18858
BR-Pitangueiras;Pitangueiras;-21.00944;-48.22167;BR;28540
BR-Pitanga;Pitanga;-24.75722;-51.76139;BR;18652
BR-Piritiba;Piritiba;-11.73028;-40.55528;BR;16230
BR-Pires_do_Rio;Pires do Rio;-17.29972;-48.27944;BR;24822
BR-Piraquara;Piraquara;-25.44227;-49.06795;BR;41161
BR-Pirapozinho;Pirapozinho;-22.27528;-51.5;BR;21709
BR-Pirapora;Pirapora;-17.345;-44.94194;BR;51656
BR-Pirajuí;Pirajuí;-21.99861;-49.45722;BR;17503
BR-Piraju;Piraju;-23.19361;-49.38389;BR;25270
BR-Piraí_do_Sul;Piraí do Sul;-24.52611;-49.94861;BR;16409
BR-Piraí;Piraí;-22.62917;-43.89806;BR;19105
BR-Pirassununga;Pirassununga;-21.99611;-47.42583;BR;60413
BR-Piracicaba;Piracicaba;-22.72528;-47.64917;BR;342209
BR-Piracanjuba;Piracanjuba;-17.30278;-49.01667;BR;16736
BR-Piracaia;Piracaia;-23.05389;-46.35806;BR;26075
BR-Pinheiral;Pinheiral;-22.51278;-44.00056;BR;19469
BR-Pinhão;Pinhão;-25.69556;-51.65972;BR;15141
BR-Espírito_Santo_do_Pinhal;Espírito Santo do Pinhal;-22.11583;-46.68278;BR;37448
BR-Pindobaçu;Pindobaçu;-10.74167;-40.36083;BR;17229
BR-Pindamonhangaba;Pindamonhangaba;-22.92389;-45.46167;BR;132218
BR-Pilar_do_Sul;Pilar do Sul;-23.81306;-47.71639;BR;19107
BR-Piedade;Piedade;-23.71194;-47.42778;BR;27912
BR-Petrópolis;Petrópolis;-22.505;-43.17861;BR;272691
BR-Peruíbe;Peruíbe;-24.32;-46.99833;BR;63030
BR-Pereira_Barreto;Pereira Barreto;-20.63833;-51.10917;BR;22537
BR-Perdões;Perdões;-21.09083;-45.09139;BR;17821
BR-Penha;Penha;-26.76944;-48.64583;BR;20096
BR-Penedo;Penedo;-10.29028;-36.58639;BR;42097
BR-Penápolis;Penápolis;-21.41972;-50.0775;BR;54477
BR-Pelotas;Pelotas;-31.76997;-52.34101;BR;320674
BR-Pedro_Leopoldo;Pedro Leopoldo;-19.61806;-44.04306;BR;49261
BR-Pedreira;Pedreira;-22.74194;-46.90139;BR;39198
BR-Pedra_Azul;Pedra Azul;-16.00528;-41.29722;BR;20899
BR-Pederneiras;Pederneiras;-22.35167;-48.775;BR;38020
BR-Paulínia;Paulínia;-22.76111;-47.15417;BR;65595
BR-Patrocínio;Patrocínio;-18.94389;-46.9925;BR;71963
BR-Patos_de_Minas;Patos de Minas;-18.57889;-46.51806;BR;126234
BR-Pato_Branco;Pato Branco;-26.22861;-52.67056;BR;65754
BR-Paty_do_Alferes;Paty do Alferes;-22.42861;-43.41861;BR;20659
BR-Posto_da_Mata;Posto da Mata;-17.88828;-39.85593;BR;22168
BR-Passos;Passos;-20.71889;-46.60972;BR;98752
BR-Passo_Fundo;Passo Fundo;-28.26278;-52.40667;BR;179529
BR-Parobé;Parobé;-29.62861;-50.83472;BR;48559
BR-Paraty;Paraty;-23.21778;-44.71306;BR;15118
BR-Paranavaí;Paranavaí;-23.07306;-52.46528;BR;72848
BR-Paranapanema;Paranapanema;-23.3863;-48.72441;BR;16215
BR-Paranaíba;Paranaíba;-19.67722;-51.19083;BR;32217
BR-Paranaguá;Paranaguá;-25.51626;-48.52537;BR;141013
BR-Paraíba_do_Sul;Paraíba do Sul;-22.15847;-43.29321;BR;35517
BR-Paraguaçu_Paulista;Paraguaçu Paulista;-22.41278;-50.57583;BR;39120
BR-Paraguaçu;Paraguaçu;-21.54722;-45.7375;BR;15741
BR-Pará_de_Minas;Pará de Minas;-19.86028;-44.60833;BR;75786
BR-Paracatu;Paracatu;-17.22222;-46.87472;BR;70753
BR-Paracambi;Paracambi;-22.60829;-43.7084;BR;36098
BR-Panambi;Panambi;-28.2925;-53.50167;BR;30407
BR-Palotina;Palotina;-24.28389;-53.84;BR;23059
BR-Palmital;Palmital;-22.78889;-50.2175;BR;18539
BR-Palmeira_das_Missões;Palmeira das Missões;-27.89944;-53.31361;BR;30954
BR-Palmeira;Palmeira;-25.42944;-50.00639;BR;18630
BR-Palmas;Palmas;-26.48417;-51.99056;BR;39150
BR-Palhoça;Palhoça;-27.64528;-48.66778;BR;122423
BR-Paiçandu;Paiçandu;-23.4575;-52.04861;BR;34365
BR-Padre_Bernardo;Padre Bernardo;-15.16595;-48.28281;BR;16118
BR-Ouro_Preto;Ouro Preto;-20.39484;-43.50517;BR;63678
BR-Ouro_Branco;Ouro Branco;-20.52334;-43.69486;BR;26687
BR-Ourinhos;Ourinhos;-22.97889;-49.87056;BR;97799
BR-Osvaldo_Cruz;Osvaldo Cruz;-21.79667;-50.87861;BR;25746
BR-Osório;Osório;-29.88667;-50.26972;BR;34628
BR-Osasco;Osasco;-23.5325;-46.79167;BR;677856
BR-Orleans;Orleans;-28.35889;-49.29139;BR;16422
BR-Orlândia;Orlândia;-20.72028;-47.88667;BR;44766
BR-Oliveira;Oliveira;-20.69639;-44.82722;BR;34710
BR-Olímpia;Olímpia;-20.73722;-48.91472;BR;45199
BR-Novo_Horizonte;Novo Horizonte;-21.46806;-49.22083;BR;30158
BR-Novo_Hamburgo;Novo Hamburgo;-29.67833;-51.13056;BR;253841
BR-Nova_Viçosa;Nova Viçosa;-17.89194;-39.37194;BR;20097
BR-Nova_Venécia;Nova Venécia;-18.71056;-40.40056;BR;28362
BR-Nova_Prata;Nova Prata;-28.78389;-51.61;BR;17943
BR-Nova_Petrópolis;Nova Petrópolis;-29.37639;-51.11444;BR;16049
BR-Nova_Olímpia;Nova Olímpia;-14.79722;-57.28806;BR;19274
BR-Nova_Odessa;Nova Odessa;-22.7775;-47.29583;BR;49432
BR-Nova_Lima;Nova Lima;-19.98556;-43.84667;BR;88399
BR-Nova_Iguaçu;Nova Iguaçu;-22.75917;-43.45111;BR;1002118
BR-Nova_Granada;Nova Granada;-20.53389;-49.31417;BR;15715
BR-Nova_Friburgo;Nova Friburgo;-22.28194;-42.53111;BR;153361
BR-Nova_Era;Nova Era;-19.75;-43.0375;BR;15595
BR-Nossa_Senhora_do_Socorro;Nossa Senhora do Socorro;-10.855;-37.12611;BR;163993
BR-Nossa_Senhora_da_Glória;Nossa Senhora da Glória;-10.21833;-37.42028;BR;18612
BR-Niterói;Niterói;-22.88333;-43.10361;BR;456456
BR-Niquelândia;Niquelândia;-14.47389;-48.45972;BR;27541
BR-Nilópolis;Nilópolis;-22.8075;-43.41389;BR;147281
BR-Nerópolis;Nerópolis;-16.40639;-49.21861;BR;21870
BR-Nepomuceno;Nepomuceno;-21.23342;-45.23488;BR;18911
BR-Nazaré;Nazaré;-13.035;-39.01444;BR;25604
BR-Naviraí;Naviraí;-23.065;-54.19056;BR;36452
BR-Navegantes;Navegantes;-26.89889;-48.65417;BR;47781
BR-Nanuque;Nanuque;-17.83917;-40.35389;BR;37824
BR-Muzambinho;Muzambinho;-21.37583;-46.52556;BR;16253
BR-Muritiba;Muritiba;-12.91667;-39.25;BR;22388
BR-Muriaé;Muriaé;-21.13056;-42.36639;BR;91173
BR-Mucuri;Mucuri;-18.08639;-39.55083;BR;26775
BR-Morro_do_Chapéu;Morro do Chapéu;-11.54852;-41.15804;BR;21670
BR-Morro_Agudo;Morro Agudo;-20.73139;-48.05778;BR;25265
BR-Morrinhos;Morrinhos;-17.73111;-49.09944;BR;34143
